"Interval"|"ms"|0|0|1,"Utc"|"ms"|0|0|1,"Analog1"|"Volts"|0.0|5.0|100,"Analog2"|"Volts"|0.0|5.0|100,"Battery"|"Volts"|0.0|20.0|1,"AccelX"|"G"|-3.0|3.0|200,"AccelY"|"G"|-3.0|3.0|200,"AccelZ"|"G"|-3.0|3.0|200,"Yaw"|"Deg/Sec"|-120|120|200,"Pitch"|"Deg/Sec"|-120|120|200,"Roll"|"Deg/Sec"|-120|120|200,"Gsum"|"G"|0.0|3.0|200,"RPM"|"rpm"|0|8000|25,"RPM2"|"rpm"|0|8000|25,"GPIO1"|""|0.0|1.0|50,"Latitude"|"Degrees"|-180.0|180.0|10,"Longitude"|"Degrees"|-180.0|180.0|10,"Speed"|"mph"|0.0|150.0|10,"Altitude"|"ft"|0.0|4000.0|10,"GPSSats"|""|0|20|10,"GPSQual"|""|0|5|10,"GPSDOP"|""|0.0|20.0|10
,,,,,,,,,,,,,,,,,,,,,
68,0,,,,-0.08,0.14,0.98,0,-1,0,0.16,,,,,,,,,,
73,0,2.53,2.59,,-0.08,0.14,0.98,0,-1,0,0.16,,,,,,,,,,
78,0,,,,-0.08,0.14,0.99,0,-1,0,0.16,,,,,,,,,,
83,0,2.47,2.55,,-0.08,0.14,0.99,0,-1,0,0.16,0,0,0,,,,,,,
88,0,,,,-0.08,0.14,0.99,0,-1,0,0.16,,,,,,,,,,
93,0,2.53,2.58,,-0.08,0.14,0.99,0,-1,0,0.16,,,,,,,,,,
98,0,,,,-0.08,0.14,0.99,0,-1,0,0.16,,,,,,,,,,
103,0,2.52,2.58,,-0.08,0.14,1.0,0,-1,1,0.16,,,0,,,,,,,
108,0,,,,-0.07,0.14,0.99,0,-0,1,0.16,,,,,,,,,,
113,0,2.5,2.58,,-0.08,0.14,0.98,0,-0,1,0.16,,,,,,,,,,
118,0,,,,-0.07,0.14,0.99,0,-0,1,0.16,,,,,,,,,,
123,0,2.51,2.57,,-0.07,0.15,0.97,0,-1,1,0.16,0,0,0,,,,,,,
128,0,,,,-0.07,0.14,0.98,0,-0,1,0.16,,,,,,,,,,
133,0,2.51,2.58,,-0.07,0.14,0.99,0,-0,1,0.16,,,,,,,,,,
138,0,,,,-0.07,0.15,0.98,0,-0,1,0.16,,,,,,,,,,
143,0,2.54,2.56,,-0.07,0.14,0.98,0,-1,1,0.16,,,0,0.0,0.0,0.0,0.0,0,0,0.0
148,0,,,,-0.07,0.14,0.98,0,-0,1,0.16,,,,,,,,,,
153,0,2.53,2.58,,-0.07,0.14,0.98,0,-0,1,0.16,,,,,,,,,,
158,0,,,,-0.07,0.14,0.98,0,-0,1,0.16,,,,,,,,,,
163,0,2.52,2.57,,-0.07,0.14,0.98,0,-0,1,0.16,0,0,0,,,,,,,
168,0,,,,-0.07,0.14,0.98,0,-0,0,0.16,,,,,,,,,,
173,0,2.52,2.57,,-0.07,0.14,0.98,0,-0,0,0.16,,,,,,,,,,
178,0,,,,-0.07,0.14,0.98,0,-0,0,0.16,,,,,,,,,,
183,0,2.52,2.58,,-0.08,0.14,0.98,0,-0,0,0.16,,,0,,,,,,,
188,0,,,,-0.08,0.14,0.99,0,-0,0,0.16,,,,,,,,,,
193,0,2.52,2.57,,-0.08,0.14,0.99,0,-0,0,0.16,,,,,,,,,,
198,0,,,,-0.08,0.14,0.99,0,-0,0,0.16,,,,,,,,,,
203,0,2.52,2.57,,-0.08,0.14,0.99,0,-0,0,0.16,0,0,0,,,,,,,
208,0,,,,-0.08,0.14,0.99,0,-0,0,0.16,,,,,,,,,,
213,0,2.49,2.57,,-0.08,0.14,0.99,0,-0,0,0.16,,,,,,,,,,
218,0,,,,-0.08,0.14,0.99,0,-0,0,0.16,,,,,,,,,,
223,0,2.52,2.57,,-0.08,0.14,0.99,0,-0,0,0.16,,,0,,,,,,,
228,0,,,,-0.08,0.14,0.99,0,-0,0,0.16,,,,,,,,,,
233,0,2.52,2.57,,-0.08,0.14,0.99,0,-0,0,0.16,,,,,,,,,,
238,0,,,,-0.08,0.14,0.99,0,-0,0,0.16,,,,,,,,,,
243,0,2.52,2.58,,-0.08,0.14,0.99,0,-0,0,0.16,0,0,0,0.0,0.0,0.0,0.0,0,0,0.0
248,0,,,,-0.08,0.14,0.99,0,-0,0,0.16,,,,,,,,,,
253,0,2.52,2.58,,-0.08,0.14,0.99,0,-0,0,0.16,,,,,,,,,,
258,0,,,,-0.08,0.14,0.99,0,-0,0,0.16,,,,,,,,,,
263,0,2.52,2.57,,-0.08,0.14,0.99,0,-0,0,0.16,,,0,,,,,,,
268,0,,,,-0.08,0.14,0.99,0,-0,0,0.16,,,,,,,,,,
273,0,2.48,2.54,,-0.08,0.14,0.99,0,-0,0,0.16,,,,,,,,,,
278,0,,,,-0.08,0.14,0.99,0,-0,0,0.16,,,,,,,,,,
283,0,2.5,2.53,,-0.08,0.14,0.99,0,-0,0,0.16,0,0,0,,,,,,,
288,0,,,,-0.08,0.14,0.98,0,-0,-0,0.16,,,,,,,,,,
293,0,2.51,2.56,,-0.08,0.14,0.99,0,-0,-0,0.16,,,,,,,,,,
298,0,,,,-0.08,0.14,0.99,0,-0,-0,0.16,,,,,,,,,,
303,0,2.53,2.58,,-0.08,0.14,0.98,0,-0,-0,0.16,,,0,,,,,,,
308,0,,,,-0.08,0.14,0.99,0,-0,-0,0.16,,,,,,,,,,
313,0,2.53,2.58,,-0.08,0.14,0.99,0,-0,-0,0.16,,,,,,,,,,
318,0,,,,-0.08,0.14,0.99,0,-0,-0,0.16,,,,,,,,,,
323,0,2.52,2.57,,-0.08,0.14,0.99,0,-0,-0,0.16,0,0,0,,,,,,,
328,0,,,,-0.08,0.14,0.99,0,-0,-0,0.16,,,,,,,,,,
333,0,2.51,2.56,,-0.08,0.14,0.99,0,-0,-0,0.16,,,,,,,,,,
338,0,,,,-0.08,0.14,0.99,0,-0,-0,0.16,,,,,,,,,,
343,0,2.51,2.56,,-0.08,0.14,0.99,0,-0,-0,0.16,,,0,0.0,0.0,0.0,0.0,0,0,0.0
348,0,,,,-0.08,0.14,0.99,0,-0,-0,0.16,,,,,,,,,,
353,0,2.52,2.58,,-0.08,0.14,0.99,0,-0,-0,0.16,,,,,,,,,,
358,0,,,,-0.08,0.14,0.99,0,-0,-0,0.16,,,,,,,,,,
363,0,2.53,2.58,,-0.08,0.14,0.99,0,-0,-0,0.16,0,0,0,,,,,,,
368,0,,,,-0.08,0.14,0.99,0,-0,-0,0.16,,,,,,,,,,
373,0,2.53,2.58,,-0.08,0.14,0.99,0,-0,-0,0.16,,,,,,,,,,
378,0,,,,-0.08,0.14,0.99,0,-0,-0,0.16,,,,,,,,,,
383,0,2.52,2.57,,-0.08,0.14,0.99,0,-0,-0,0.16,,,0,,,,,,,
388,0,,,,-0.08,0.14,0.99,0,-0,-0,0.16,,,,,,,,,,
393,0,2.49,2.54,,-0.08,0.14,0.99,0,-0,-0,0.16,,,,,,,,,,
398,0,,,,-0.08,0.14,0.99,0,-0,-0,0.16,,,,,,,,,,
403,0,2.49,2.55,,-0.08,0.14,0.99,0,-0,-0,0.16,0,0,0,,,,,,,
408,0,,,,-0.08,0.14,0.99,0,-0,-0,0.16,,,,,,,,,,
413,0,2.49,2.54,,-0.08,0.14,0.99,0,-0,-0,0.16,,,,,,,,,,
418,0,,,,-0.08,0.14,0.99,0,-0,-0,0.16,,,,,,,,,,
423,0,2.49,2.55,,-0.08,0.14,0.99,0,-0,-0,0.16,,,0,,,,,,,
428,0,,,,-0.08,0.14,0.99,0,-0,-0,0.16,,,,,,,,,,
433,0,2.52,2.57,,-0.08,0.14,0.99,0,-0,-0,0.16,,,,,,,,,,
438,0,,,,-0.08,0.14,0.99,0,-0,-0,0.16,,,,,,,,,,
443,0,2.51,2.56,,-0.08,0.14,0.99,0,-0,-0,0.16,0,0,0,0.0,0.0,0.0,0.0,0,0,0.0
448,0,,,,-0.08,0.14,0.99,0,-0,-0,0.16,,,,,,,,,,
453,0,2.51,2.56,,-0.08,0.14,0.99,0,-0,-0,0.16,,,,,,,,,,
458,0,,,,-0.08,0.14,0.99,0,-0,-0,0.16,,,,,,,,,,
463,0,2.48,2.54,,-0.08,0.14,0.99,0,-0,-0,0.16,,,0,,,,,,,
468,0,,,,-0.08,0.14,0.99,0,-0,-0,0.16,,,,,,,,,,
473,0,2.48,2.54,,-0.08,0.14,0.99,0,-0,-0,0.16,,,,,,,,,,
478,0,,,,-0.08,0.14,0.99,0,-0,-0,0.16,,,,,,,,,,
483,0,2.52,2.58,,-0.08,0.14,0.99,0,-0,-0,0.16,0,0,0,,,,,,,
488,0,,,,-0.08,0.14,0.99,0,-0,-0,0.16,,,,,,,,,,
493,0,2.52,2.58,,-0.08,0.14,0.99,0,-0,-0,0.16,,,,,,,,,,
498,0,,,,-0.08,0.14,0.99,0,-0,-0,0.16,,,,,,,,,,
503,0,2.49,2.54,,-0.08,0.14,0.99,0,-0,-0,0.16,,,0,,,,,,,
508,0,,,,-0.08,0.14,0.99,0,-0,-0,0.16,,,,,,,,,,
513,0,2.52,2.57,,-0.08,0.14,0.99,0,-0,-0,0.16,,,,,,,,,,
518,0,,,,-0.08,0.14,0.99,0,-0,-0,0.16,,,,,,,,,,
523,0,2.53,2.58,,-0.08,0.14,0.99,0,-0,-0,0.16,0,0,0,,,,,,,
528,0,,,,-0.08,0.14,0.99,0,-0,-0,0.16,,,,,,,,,,
533,0,2.52,2.58,,-0.08,0.14,0.99,0,-0,-0,0.16,,,,,,,,,,
538,0,,,,-0.08,0.14,1.0,0,-0,-0,0.16,,,,,,,,,,
543,0,2.48,2.54,,-0.08,0.14,1.0,0,-0,-0,0.16,,,0,0.0,0.0,0.0,0.0,0,0,0.0
548,0,,,,-0.08,0.14,1.0,0,-0,-0,0.16,,,,,,,,,,
553,0,2.52,2.58,,-0.08,0.14,1.0,0,-0,-0,0.16,,,,,,,,,,
558,0,,,,-0.08,0.14,1.0,0,-0,-0,0.16,,,,,,,,,,
563,0,2.51,2.56,,-0.08,0.14,1.01,0,-0,-0,0.16,0,0,0,,,,,,,
568,0,,,,-0.08,0.14,1.0,0,-0,-0,0.16,,,,,,,,,,
573,0,2.48,2.54,,-0.08,0.14,1.0,0,-0,-0,0.16,,,,,,,,,,
578,0,,,,-0.08,0.14,1.0,0,-0,-0,0.16,,,,,,,,,,
583,0,2.5,2.56,,-0.08,0.14,1.0,0,-0,-0,0.16,,,0,,,,,,,
588,0,,,,-0.08,0.14,1.0,0,-0,-0,0.16,,,,,,,,,,
593,0,2.52,2.58,,-0.08,0.14,1.0,0,-0,-0,0.16,,,,,,,,,,
598,0,,,,-0.08,0.14,1.0,0,-0,-0,0.16,,,,,,,,,,
603,0,2.52,2.57,,-0.08,0.14,1.0,0,-0,-0,0.16,0,0,0,,,,,,,
608,0,,,,-0.08,0.14,1.0,0,-0,-0,0.16,,,,,,,,,,
613,0,2.52,2.55,,-0.08,0.14,1.0,0,-0,-0,0.16,,,,,,,,,,
618,0,,,,-0.08,0.14,1.0,0,-0,-0,0.16,,,,,,,,,,
623,0,2.49,2.54,,-0.08,0.14,1.0,0,-0,-0,0.16,,,0,,,,,,,
628,0,,,,-0.08,0.14,1.0,0,-0,-0,0.16,,,,,,,,,,
633,0,2.5,2.55,,-0.08,0.14,1.0,0,-0,-0,0.16,,,,,,,,,,
638,0,,,,-0.08,0.14,1.0,0,-0,-0,0.16,,,,,,,,,,
643,0,2.5,2.56,,-0.08,0.14,0.99,0,-0,-0,0.16,0,0,0,0.0,0.0,0.0,0.0,0,0,0.0
648,0,,,,-0.08,0.14,0.99,0,-0,-0,0.16,,,,,,,,,,
653,0,2.53,2.58,,-0.08,0.14,0.99,0,-0,-0,0.16,,,,,,,,,,
658,0,,,,-0.08,0.14,0.99,0,-0,-0,0.16,,,,,,,,,,
663,0,2.53,2.58,,-0.08,0.14,0.99,0,-0,-0,0.16,,,0,,,,,,,
668,0,,,,-0.08,0.14,0.99,0,-0,-0,0.16,,,,,,,,,,
673,0,2.49,2.55,,-0.08,0.14,0.99,0,-0,-0,0.16,,,,,,,,,,
678,0,,,,-0.08,0.14,0.99,0,-0,-0,0.16,,,,,,,,,,
683,0,2.51,2.57,,-0.08,0.14,0.99,0,-0,-0,0.16,0,0,0,,,,,,,
688,0,,,,-0.08,0.14,0.99,0,-0,-0,0.16,,,,,,,,,,
693,0,2.52,2.58,,-0.08,0.14,0.99,0,-0,-0,0.16,,,,,,,,,,
698,0,,,,-0.08,0.14,0.99,0,-0,-0,0.16,,,,,,,,,,
703,0,2.53,2.58,,-0.08,0.14,0.99,0,-0,-0,0.16,,,0,,,,,,,
708,0,,,,-0.08,0.14,0.99,0,-0,-0,0.16,,,,,,,,,,
713,0,2.52,2.58,,-0.08,0.14,0.99,0,-0,-0,0.16,,,,,,,,,,
718,0,,,,-0.08,0.14,0.99,0,-0,-0,0.16,,,,,,,,,,
723,0,2.5,2.56,,-0.08,0.14,0.99,0,-0,-0,0.16,0,0,0,,,,,,,
728,0,,,,-0.08,0.14,0.99,0,-0,-0,0.16,,,,,,,,,,
733,0,2.52,2.58,,-0.08,0.14,0.99,0,-0,-0,0.16,,,,,,,,,,
738,0,,,,-0.08,0.14,0.99,0,-0,-0,0.16,,,,,,,,,,
743,0,2.52,2.58,,-0.08,0.14,0.99,0,-0,-0,0.16,,,0,0.0,0.0,0.0,0.0,0,0,0.0
748,0,,,,-0.08,0.14,0.99,0,-0,-0,0.16,,,,,,,,,,
753,0,2.49,2.56,,-0.08,0.14,0.99,0,-0,-0,0.16,,,,,,,,,,
758,0,,,,-0.08,0.14,0.99,0,-0,-0,0.16,,,,,,,,,,
763,0,2.52,2.57,,-0.08,0.14,0.99,0,-0,-0,0.16,0,0,0,,,,,,,
768,0,,,,-0.08,0.14,0.99,0,-0,-0,0.16,,,,,,,,,,
773,0,2.52,2.57,,-0.08,0.14,0.99,0,-0,-0,0.16,,,,,,,,,,
778,0,,,,-0.08,0.14,0.99,0,-0,-0,0.16,,,,,,,,,,
783,0,2.53,2.58,,-0.08,0.14,0.99,0,-0,-0,0.16,,,0,,,,,,,
788,0,,,,-0.08,0.14,0.99,0,-0,-0,0.16,,,,,,,,,,
793,0,2.51,2.56,,-0.08,0.14,0.99,0,-0,-0,0.16,,,,,,,,,,
798,0,,,,-0.08,0.14,0.99,0,-0,-0,0.16,,,,,,,,,,
803,0,2.48,2.54,,-0.08,0.14,0.99,0,-0,-0,0.16,0,0,0,,,,,,,
808,0,,,,-0.08,0.14,0.99,0,-0,-0,0.16,,,,,,,,,,
813,0,2.48,2.54,,-0.08,0.14,0.99,0,-0,-0,0.16,,,,,,,,,,
818,0,,,,-0.08,0.14,0.99,0,-0,-0,0.16,,,,,,,,,,
823,0,2.52,2.57,,-0.08,0.14,0.99,0,-0,-0,0.16,,,0,,,,,,,
828,0,,,,-0.08,0.14,0.99,0,-0,-0,0.16,,,,,,,,,,
833,0,2.53,2.58,,-0.08,0.14,0.99,0,-0,-0,0.16,,,,,,,,,,
838,0,,,,-0.08,0.14,0.99,0,-0,-0,0.16,,,,,,,,,,
843,0,2.5,2.55,,-0.08,0.14,0.99,0,-0,-0,0.16,0,0,0,0.0,0.0,0.0,0.0,0,0,0.0
848,0,,,,-0.08,0.14,0.99,0,-0,-0,0.16,,,,,,,,,,
853,0,2.53,2.58,,-0.08,0.14,0.99,0,-0,-0,0.16,,,,,,,,,,
858,0,,,,-0.08,0.14,0.99,0,-0,-0,0.16,,,,,,,,,,
863,0,2.5,2.55,,-0.08,0.14,0.99,0,-0,-0,0.16,,,0,,,,,,,
868,0,,,,-0.08,0.14,0.99,0,-0,-0,0.16,,,,,,,,,,
873,0,2.52,2.58,,-0.08,0.14,0.99,0,-0,-0,0.16,,,,,,,,,,
878,0,,,,-0.08,0.14,0.99,0,-0,-0,0.16,,,,,,,,,,
883,0,2.52,2.58,,-0.08,0.14,0.99,0,-0,-0,0.16,0,0,0,,,,,,,
888,0,,,,-0.08,0.14,0.99,0,-0,-0,0.16,,,,,,,,,,
893,0,2.48,2.54,,-0.08,0.14,0.99,0,-0,-0,0.16,,,,,,,,,,
898,0,,,,-0.08,0.14,0.99,0,-0,-0,0.16,,,,,,,,,,
903,0,2.52,2.57,,-0.08,0.14,0.99,0,-0,-0,0.16,,,0,,,,,,,
908,0,,,,-0.08,0.14,0.99,0,-0,-0,0.16,,,,,,,,,,
913,0,2.53,2.58,,-0.08,0.14,0.99,0,-0,-0,0.16,,,,,,,,,,
918,0,,,,-0.08,0.14,0.99,0,-0,-0,0.16,,,,,,,,,,
923,0,2.49,2.54,,-0.08,0.14,0.99,0,-0,-0,0.16,0,0,0,,,,,,,
928,0,,,,-0.08,0.14,0.99,0,-0,-0,0.16,,,,,,,,,,
933,0,2.52,2.58,,-0.08,0.14,0.99,0,-0,-0,0.16,,,,,,,,,,
938,0,,,,-0.08,0.14,0.99,0,-0,-0,0.16,,,,,,,,,,
943,0,2.51,2.57,,-0.08,0.14,0.99,0,-0,-0,0.16,,,0,0.0,0.0,0.0,0.0,0,0,0.0
948,0,,,,-0.08,0.14,0.99,0,-0,0,0.16,,,,,,,,,,
953,0,2.53,2.58,,-0.08,0.14,0.99,0,-0,0,0.16,,,,,,,,,,
958,0,,,,-0.08,0.14,0.99,0,-0,0,0.16,,,,,,,,,,
963,0,2.51,2.56,,-0.08,0.14,0.99,0,-0,0,0.16,0,0,0,,,,,,,
968,0,,,,-0.08,0.14,0.99,0,-0,0,0.16,,,,,,,,,,
973,0,2.51,2.56,,-0.08,0.14,0.99,0,-0,0,0.16,,,,,,,,,,
978,0,,,,-0.08,0.14,0.99,0,-0,-0,0.16,,,,,,,,,,
983,0,2.53,2.58,,-0.08,0.14,0.99,0,-0,-0,0.16,,,0,,,,,,,
988,0,,,,-0.08,0.14,0.99,0,-0,-0,0.16,,,,,,,,,,
993,0,2.53,2.58,,-0.08,0.14,0.99,0,-0,-0,0.16,,,,,,,,,,
998,0,,,,-0.08,0.14,0.99,0,-0,-0,0.16,,,,,,,,,,
1003,0,2.51,2.56,,-0.08,0.14,0.99,0,-0,-0,0.16,0,0,0,,,,,,,
1008,0,,,,-0.08,0.14,0.99,0,-0,-0,0.16,,,,,,,,,,
1013,0,2.5,2.55,,-0.08,0.14,0.99,0,-0,-0,0.16,,,,,,,,,,
1018,0,,,,-0.08,0.14,0.99,0,-0,-0,0.16,,,,,,,,,,
1023,0,2.48,2.54,,-0.08,0.14,0.99,0,-0,-0,0.16,,,0,,,,,,,
1028,0,,,,-0.08,0.14,0.99,0,-0,-0,0.16,,,,,,,,,,
1033,0,2.52,2.57,,-0.08,0.14,0.99,0,-0,-0,0.16,,,,,,,,,,
1038,0,,,,-0.08,0.14,0.99,0,-0,-0,0.16,,,,,,,,,,
1043,0,2.48,2.54,13.66,-0.08,0.14,0.99,0,-0,-0,0.16,0,0,0,0.0,0.0,0.0,0.0,0,0,0.0
1048,0,,,,-0.08,0.14,0.99,0,-0,-0,0.16,,,,,,,,,,
1053,0,2.53,2.58,,-0.08,0.14,0.99,0,-0,-0,0.16,,,,,,,,,,
1058,0,,,,-0.08,0.14,0.99,0,-0,-0,0.16,,,,,,,,,,
1063,0,2.48,2.54,,-0.08,0.14,0.99,0,-0,-0,0.16,,,0,,,,,,,
1068,0,,,,-0.08,0.14,0.99,0,-0,-0,0.16,,,,,,,,,,
1073,0,2.52,2.58,,-0.08,0.14,0.99,0,-0,-0,0.16,,,,,,,,,,
1078,0,,,,-0.08,0.14,0.99,0,-0,-0,0.16,,,,,,,,,,
1083,0,2.49,2.54,,-0.08,0.14,0.99,0,-0,-0,0.16,0,0,0,,,,,,,
1088,0,,,,-0.08,0.14,0.99,0,-0,-0,0.16,,,,,,,,,,
1093,0,2.52,2.57,,-0.08,0.14,0.99,0,-0,-0,0.16,,,,,,,,,,
1098,0,,,,-0.08,0.14,0.99,0,-0,-0,0.16,,,,,,,,,,
1103,0,2.48,2.53,,-0.08,0.14,0.99,0,-0,-0,0.16,,,0,,,,,,,
1108,0,,,,-0.08,0.14,0.99,0,-0,-0,0.16,,,,,,,,,,
1113,0,2.52,2.57,,-0.08,0.14,0.99,0,-0,-0,0.16,,,,,,,,,,
1118,0,,,,-0.08,0.14,0.99,0,-0,-0,0.16,,,,,,,,,,
1123,0,2.52,2.58,,-0.08,0.14,0.99,0,-0,-0,0.16,0,0,0,,,,,,,
1128,0,,,,-0.08,0.14,0.99,0,-0,-0,0.16,,,,,,,,,,
1133,0,2.51,2.57,,-0.08,0.14,0.99,0,-0,-0,0.16,,,,,,,,,,
1138,0,,,,-0.08,0.14,0.99,0,-0,-0,0.16,,,,,,,,,,
1143,0,2.53,2.58,,-0.08,0.14,0.99,0,-0,-0,0.16,,,0,0.0,0.0,0.0,0.0,0,0,0.0
1148,0,,,,-0.08,0.14,0.99,0,-0,-0,0.16,,,,,,,,,,
1153,0,2.49,2.54,,-0.08,0.14,0.99,0,-0,-0,0.16,,,,,,,,,,
1158,0,,,,-0.08,0.14,0.99,0,-0,-0,0.16,,,,,,,,,,
1163,0,2.52,2.57,,-0.08,0.14,0.99,0,-0,-0,0.16,0,0,0,,,,,,,
1168,0,,,,-0.08,0.14,0.99,0,-0,-0,0.16,,,,,,,,,,
1173,0,2.5,2.55,,-0.08,0.14,0.99,0,-0,-0,0.16,,,,,,,,,,
1178,0,,,,-0.08,0.14,0.99,0,-0,-0,0.16,,,,,,,,,,
1183,0,2.5,2.55,,-0.08,0.14,0.99,0,-0,-0,0.16,,,0,,,,,,,
1188,0,,,,-0.08,0.14,0.99,0,-0,-0,0.16,,,,,,,,,,
1193,0,2.48,2.54,,-0.08,0.14,0.99,0,-0,-0,0.16,,,,,,,,,,
1198,0,,,,-0.08,0.14,0.99,0,-0,-0,0.16,,,,,,,,,,
1203,0,2.51,2.56,,-0.08,0.14,0.99,0,-0,-0,0.16,0,0,0,,,,,,,
1208,0,,,,-0.08,0.14,0.99,0,-0,-0,0.16,,,,,,,,,,
1213,0,2.52,2.57,,-0.08,0.14,0.99,0,-0,-0,0.16,,,,,,,,,,
1218,0,,,,-0.08,0.14,0.99,0,-0,-0,0.16,,,,,,,,,,
1223,0,2.51,2.55,,-0.08,0.14,0.99,0,-0,-0,0.16,,,0,,,,,,,
1228,0,,,,-0.08,0.14,0.99,0,-0,-0,0.16,,,,,,,,,,
1233,0,2.53,2.57,,-0.08,0.14,0.99,0,-0,-0,0.16,,,,,,,,,,
1238,0,,,,-0.08,0.14,0.99,0,-0,-0,0.16,,,,,,,,,,
1243,0,2.51,2.56,,-0.08,0.14,0.99,0,-0,-0,0.16,0,0,0,0.0,0.0,0.0,0.0,0,0,0.0
1248,0,,,,-0.08,0.14,0.99,0,-0,-0,0.16,,,,,,,,,,
1253,0,2.53,2.54,,-0.08,0.14,0.99,0,-0,-0,0.16,,,,,,,,,,
1258,0,,,,-0.08,0.14,0.99,0,0,-0,0.16,,,,,,,,,,
1263,0,2.52,2.58,,-0.08,0.14,0.99,0,-0,-0,0.16,,,0,,,,,,,
1268,0,,,,-0.08,0.14,0.99,0,-0,-0,0.16,,,,,,,,,,
1273,0,2.52,2.58,,-0.08,0.14,0.99,0,-0,-0,0.16,,,,,,,,,,
1278,0,,,,-0.08,0.14,0.99,0,-0,-0,0.16,,,,,,,,,,
1283,0,2.51,2.56,,-0.08,0.14,0.99,0,-0,-0,0.16,0,0,0,,,,,,,
1288,0,,,,-0.08,0.14,0.99,0,-0,-0,0.16,,,,,,,,,,
1293,0,2.48,2.54,,-0.08,0.14,0.99,0,-0,-0,0.16,,,,,,,,,,
1298,0,,,,-0.08,0.14,0.99,0,-0,-0,0.16,,,,,,,,,,
1303,0,2.52,2.58,,-0.08,0.14,0.99,0,-0,-0,0.16,,,0,,,,,,,
1308,0,,,,-0.08,0.14,0.99,0,-0,-0,0.16,,,,,,,,,,
1313,0,2.51,2.56,,-0.08,0.14,0.99,0,-0,-0,0.16,,,,,,,,,,
1318,0,,,,-0.08,0.14,0.99,0,-0,-0,0.16,,,,,,,,,,
1323,0,2.51,2.56,,-0.08,0.14,0.99,0,-0,-0,0.16,0,0,0,,,,,,,
1328,0,,,,-0.08,0.14,1.0,0,-0,-0,0.16,,,,,,,,,,
1333,0,2.48,2.54,,-0.08,0.14,1.0,0,0,-0,0.16,,,,,,,,,,
1338,0,,,,-0.08,0.14,1.0,0,0,-0,0.16,,,,,,,,,,
1343,0,2.48,2.54,,-0.08,0.14,1.0,0,0,-0,0.16,,,0,0.0,0.0,0.0,0.0,0,0,0.0
1348,0,,,,-0.08,0.14,1.0,0,0,-0,0.16,,,,,,,,,,
1353,0,2.5,2.54,,-0.08,0.14,1.0,0,0,-0,0.16,,,,,,,,,,
1358,0,,,,-0.08,0.14,1.0,0,0,-0,0.16,,,,,,,,,,
1363,0,2.52,2.57,,-0.08,0.14,1.0,0,0,-0,0.16,0,0,0,,,,,,,
1368,0,,,,-0.08,0.14,1.0,0,0,-0,0.16,,,,,,,,,,
1373,0,2.51,2.56,,-0.08,0.14,1.0,0,-0,-0,0.16,,,,,,,,,,
1378,0,,,,-0.08,0.14,1.0,0,0,-0,0.16,,,,,,,,,,
1383,0,2.52,2.57,,-0.08,0.14,1.0,0,0,-0,0.16,,,0,,,,,,,
1388,0,,,,-0.08,0.14,1.0,0,0,-0,0.16,,,,,,,,,,
1393,0,2.53,2.58,,-0.08,0.14,1.0,0,0,-0,0.16,,,,,,,,,,
1398,0,,,,-0.08,0.14,1.0,0,0,-0,0.16,,,,,,,,,,
1403,0,2.52,2.57,,-0.08,0.14,1.0,0,-0,-0,0.16,0,0,0,,,,,,,
1408,0,,,,-0.08,0.14,1.0,0,-0,-0,0.16,,,,,,,,,,
1413,0,2.51,2.56,,-0.08,0.14,1.0,0,-0,-0,0.16,,,,,,,,,,
1418,0,,,,-0.08,0.14,1.0,0,0,-0,0.16,,,,,,,,,,
1423,0,2.5,2.54,,-0.08,0.14,1.0,0,0,-0,0.16,,,0,,,,,,,
1428,0,,,,-0.08,0.14,1.0,0,-0,-0,0.16,,,,,,,,,,
1433,0,2.52,2.57,,-0.08,0.14,1.0,0,0,-0,0.16,,,,,,,,,,
1438,0,,,,-0.08,0.14,1.0,0,0,-0,0.16,,,,,,,,,,
1443,0,2.52,2.58,,-0.08,0.14,1.0,0,0,-0,0.16,0,0,0,0.0,0.0,0.0,0.0,0,0,0.0
1448,0,,,,-0.08,0.14,1.0,0,0,-0,0.16,,,,,,,,,,
1453,0,2.52,2.58,,-0.08,0.14,1.0,0,-0,-0,0.16,,,,,,,,,,
1458,0,,,,-0.08,0.14,1.0,0,-0,-0,0.16,,,,,,,,,,
1463,0,2.52,2.57,,-0.08,0.14,1.0,0,-0,-0,0.16,,,0,,,,,,,
1468,0,,,,-0.08,0.14,0.99,0,-0,-0,0.16,,,,,,,,,,
1473,0,2.51,2.56,,-0.08,0.14,0.99,0,-0,-0,0.16,,,,,,,,,,
1478,0,,,,-0.08,0.14,0.99,0,-0,-0,0.16,,,,,,,,,,
1483,0,2.49,2.55,,-0.08,0.14,0.99,0,-0,-0,0.16,0,0,0,,,,,,,
1488,0,,,,-0.08,0.14,0.99,0,-0,-0,0.16,,,,,,,,,,
1493,0,2.52,2.58,,-0.08,0.14,0.99,0,-0,-0,0.16,,,,,,,,,,
1498,0,,,,-0.08,0.14,0.99,0,-0,-0,0.16,,,,,,,,,,
1503,0,2.5,2.55,,-0.08,0.14,0.99,0,-0,-0,0.16,,,0,,,,,,,
1508,0,,,,-0.08,0.14,0.99,0,-0,-0,0.16,,,,,,,,,,
1513,0,2.49,2.55,,-0.08,0.14,0.99,0,-0,-0,0.16,,,,,,,,,,
1518,0,,,,-0.08,0.14,0.99,0,-0,-0,0.16,,,,,,,,,,
1523,0,2.54,2.58,,-0.08,0.14,0.99,0,-0,-0,0.16,0,0,0,,,,,,,
1528,0,,,,-0.08,0.14,0.99,0,-0,-0,0.16,,,,,,,,,,
1533,0,2.52,2.57,,-0.08,0.14,0.99,0,-0,-0,0.16,,,,,,,,,,
1538,0,,,,-0.08,0.14,0.99,0,-0,-0,0.16,,,,,,,,,,
1543,0,2.53,2.58,,-0.08,0.14,0.99,0,-0,-0,0.16,,,0,0.0,0.0,0.0,0.0,0,0,0.0
1548,0,,,,-0.08,0.14,0.99,0,-0,-0,0.16,,,,,,,,,,
1553,0,2.48,2.56,,-0.08,0.14,0.99,0,-0,-0,0.16,,,,,,,,,,
1558,0,,,,-0.08,0.14,0.99,0,-0,-0,0.16,,,,,,,,,,
1563,0,2.53,2.58,,-0.08,0.14,0.99,0,-0,-0,0.16,0,0,0,,,,,,,
1568,0,,,,-0.08,0.14,0.99,0,-0,-0,0.16,,,,,,,,,,
1573,0,2.5,2.55,,-0.08,0.14,0.99,0,-0,-0,0.16,,,,,,,,,,
1578,0,,,,-0.08,0.14,0.99,0,-0,-0,0.16,,,,,,,,,,
1583,0,2.53,2.58,,-0.08,0.14,0.99,0,-0,-0,0.16,,,0,,,,,,,
1588,0,,,,-0.08,0.14,0.99,0,-0,-0,0.16,,,,,,,,,,
1593,0,2.51,2.57,,-0.08,0.14,0.99,0,-0,-0,0.16,,,,,,,,,,
1598,0,,,,-0.08,0.14,0.99,0,-0,-0,0.16,,,,,,,,,,
1603,0,2.51,2.55,,-0.08,0.14,0.99,0,-0,-0,0.16,0,0,0,,,,,,,
1608,0,,,,-0.08,0.14,0.99,0,-0,-0,0.16,,,,,,,,,,
1613,0,2.53,2.58,,-0.08,0.14,0.99,0,-0,-0,0.16,,,,,,,,,,
1618,0,,,,-0.08,0.14,0.99,0,-0,-0,0.16,,,,,,,,,,
1623,0,2.48,2.56,,-0.08,0.14,1.0,0,-0,-0,0.16,,,0,,,,,,,
1628,0,,,,-0.08,0.14,0.99,0,-0,-0,0.16,,,,,,,,,,
1633,0,2.52,2.57,,-0.08,0.14,0.99,0,-0,-0,0.16,,,,,,,,,,
1638,0,,,,-0.08,0.14,0.99,0,-0,-0,0.16,,,,,,,,,,
1643,0,2.49,2.54,,-0.08,0.14,0.99,0,-0,-0,0.16,0,0,0,0.0,0.0,0.0,0.0,0,0,0.0
1648,0,,,,-0.08,0.14,0.99,0,-0,-0,0.16,,,,,,,,,,
1653,0,2.52,2.58,,-0.08,0.14,0.99,0,-0,-0,0.16,,,,,,,,,,
1658,0,,,,-0.08,0.14,0.99,0,-0,-0,0.16,,,,,,,,,,
1663,0,2.51,2.56,,-0.08,0.14,0.99,0,-0,-0,0.16,,,0,,,,,,,
1668,0,,,,-0.08,0.14,0.99,0,-0,-0,0.16,,,,,,,,,,
1673,0,2.51,2.57,,-0.08,0.14,0.99,0,-0,-0,0.16,,,,,,,,,,
1678,0,,,,-0.08,0.14,0.99,0,-0,-0,0.16,,,,,,,,,,
1683,0,2.53,2.58,,-0.08,0.14,0.99,0,-0,-0,0.16,0,0,0,,,,,,,
1688,0,,,,-0.08,0.14,0.99,0,-0,-0,0.16,,,,,,,,,,
1693,0,2.49,2.56,,-0.08,0.14,0.99,0,-0,-0,0.16,,,,,,,,,,
1698,0,,,,-0.08,0.14,0.99,0,-0,-0,0.16,,,,,,,,,,
1703,0,2.5,2.55,,-0.08,0.14,0.99,0,-0,-0,0.16,,,0,,,,,,,
1708,0,,,,-0.08,0.14,0.99,0,-0,-0,0.16,,,,,,,,,,
1713,0,2.52,2.58,,-0.08,0.14,0.99,0,-0,-0,0.16,,,,,,,,,,
1718,0,,,,-0.08,0.14,0.99,0,-0,-0,0.16,,,,,,,,,,
1723,0,2.49,2.54,,-0.08,0.14,0.99,0,-0,-0,0.16,0,0,0,,,,,,,
1728,0,,,,-0.08,0.14,0.99,0,-0,-0,0.16,,,,,,,,,,
1733,0,2.52,2.57,,-0.08,0.14,0.99,0,-0,-0,0.16,,,,,,,,,,
1738,0,,,,-0.08,0.14,0.99,0,-0,-0,0.16,,,,,,,,,,
1743,0,2.51,2.57,,-0.08,0.14,0.99,0,-0,-0,0.16,,,0,0.0,0.0,0.0,0.0,0,0,0.0
1748,0,,,,-0.08,0.14,0.99,0,-0,-0,0.16,,,,,,,,,,
1753,0,2.52,2.58,,-0.08,0.14,0.99,0,-0,-0,0.16,,,,,,,,,,
1758,0,,,,-0.08,0.14,0.99,0,-0,-0,0.16,,,,,,,,,,
1763,0,2.51,2.56,,-0.08,0.14,0.99,0,-0,-0,0.16,0,0,0,,,,,,,
1768,0,,,,-0.08,0.14,0.99,0,-0,-0,0.16,,,,,,,,,,
1773,0,2.51,2.56,,-0.08,0.14,0.99,0,-0,-0,0.16,,,,,,,,,,
1778,0,,,,-0.08,0.14,0.99,0,-0,-0,0.16,,,,,,,,,,
1783,0,2.52,2.57,,-0.08,0.14,0.99,0,-0,-0,0.16,,,0,,,,,,,
1788,0,,,,-0.08,0.14,0.99,0,-0,-0,0.16,,,,,,,,,,
1793,0,2.49,2.54,,-0.08,0.14,0.99,0,-0,-0,0.16,,,,,,,,,,
1798,0,,,,-0.08,0.14,0.99,0,-0,-0,0.16,,,,,,,,,,
1803,0,2.52,2.58,,-0.08,0.14,0.99,0,-0,-0,0.16,0,0,0,,,,,,,
1808,0,,,,-0.08,0.14,0.99,0,-0,-0,0.16,,,,,,,,,,
1813,0,2.52,2.57,,-0.08,0.14,0.99,0,-0,-0,0.16,,,,,,,,,,
1818,0,,,,-0.08,0.14,0.99,0,-0,-0,0.16,,,,,,,,,,
1823,0,2.53,2.57,,-0.08,0.14,0.99,0,-0,-0,0.16,,,0,,,,,,,
1828,0,,,,-0.08,0.14,0.99,0,-0,-0,0.16,,,,,,,,,,
1833,0,2.52,2.58,,-0.08,0.14,0.99,0,-0,-0,0.16,,,,,,,,,,
1838,0,,,,-0.08,0.14,0.99,0,-0,-0,0.16,,,,,,,,,,
1843,0,2.52,2.58,,-0.08,0.14,0.99,0,-0,-0,0.16,0,0,0,0.0,0.0,0.0,0.0,0,0,0.0
1848,0,,,,-0.08,0.14,0.99,0,-0,-0,0.16,,,,,,,,,,
1853,0,2.5,2.56,,-0.08,0.14,0.99,0,-0,-0,0.16,,,,,,,,,,
1858,0,,,,-0.08,0.14,0.99,0,-0,-0,0.16,,,,,,,,,,
1863,0,2.5,2.55,,-0.08,0.14,0.99,0,-0,-0,0.16,,,0,,,,,,,
1868,0,,,,-0.08,0.14,0.99,0,-0,-0,0.16,,,,,,,,,,
1873,0,2.53,2.58,,-0.08,0.14,0.99,0,-0,-0,0.16,,,,,,,,,,
1878,0,,,,-0.08,0.14,0.99,0,-0,-0,0.16,,,,,,,,,,
1883,0,2.52,2.57,,-0.08,0.14,0.99,0,-0,-0,0.16,0,0,0,,,,,,,
1888,0,,,,-0.08,0.14,0.99,0,-0,-0,0.16,,,,,,,,,,
1893,0,2.52,2.58,,-0.08,0.14,0.99,0,-0,-0,0.16,,,,,,,,,,
1898,0,,,,-0.08,0.14,0.99,0,-0,-0,0.16,,,,,,,,,,
1903,0,2.51,2.57,,-0.08,0.14,0.99,0,-0,-0,0.16,,,0,,,,,,,
1908,0,,,,-0.08,0.14,0.99,0,-0,-0,0.16,,,,,,,,,,
1913,0,2.52,2.58,,-0.08,0.14,0.99,0,-0,-0,0.16,,,,,,,,,,
1918,0,,,,-0.08,0.14,0.99,0,-0,-0,0.16,,,,,,,,,,
1923,0,2.49,2.54,,-0.08,0.14,0.99,0,-0,-0,0.16,0,0,0,,,,,,,
1928,0,,,,-0.08,0.14,0.99,0,-0,-0,0.16,,,,,,,,,,
1933,0,2.49,2.56,,-0.08,0.14,0.99,0,-0,-0,0.16,,,,,,,,,,
1938,0,,,,-0.08,0.14,0.99,0,-0,-0,0.16,,,,,,,,,,
1943,0,2.51,2.56,,-0.08,0.14,0.99,0,-0,-0,0.16,,,0,0.0,0.0,0.0,0.0,0,0,0.0
1948,0,,,,-0.08,0.14,0.99,0,-0,-0,0.16,,,,,,,,,,
1953,0,2.53,2.58,,-0.08,0.14,0.99,0,-0,-0,0.16,,,,,,,,,,
1958,0,,,,-0.08,0.14,0.99,0,-0,-0,0.16,,,,,,,,,,
1963,0,2.52,2.57,,-0.08,0.14,0.99,0,-0,-0,0.16,0,0,0,,,,,,,
1968,0,,,,-0.08,0.14,0.99,0,-0,-0,0.16,,,,,,,,,,
1973,0,2.51,2.56,,-0.08,0.14,0.99,0,-0,-0,0.16,,,,,,,,,,
1978,0,,,,-0.08,0.14,0.99,0,-0,-0,0.16,,,,,,,,,,
1983,0,2.51,2.57,,-0.08,0.14,0.99,0,-0,-0,0.16,,,0,,,,,,,
1988,0,,,,-0.08,0.14,0.99,0,-0,-0,0.16,,,,,,,,,,
1993,0,2.53,2.58,,-0.08,0.14,0.99,0,-0,-0,0.16,,,,,,,,,,
1998,0,,,,-0.08,0.14,0.99,0,-0,-0,0.16,,,,,,,,,,
2003,0,2.52,2.58,,-0.08,0.14,0.99,0,-0,-0,0.16,0,0,0,,,,,,,
2008,0,,,,-0.08,0.14,0.99,0,-0,-0,0.16,,,,,,,,,,
2013,0,2.48,2.54,,-0.08,0.14,0.99,0,-0,-0,0.16,,,,,,,,,,
2018,0,,,,-0.08,0.14,0.99,0,-0,-0,0.16,,,,,,,,,,
2023,0,2.51,2.57,,-0.08,0.14,0.99,0,-0,-0,0.16,,,0,,,,,,,
2028,0,,,,-0.08,0.14,0.99,0,-0,-0,0.16,,,,,,,,,,
2033,0,2.52,2.58,,-0.08,0.14,0.99,0,-0,-0,0.16,,,,,,,,,,
2038,0,,,,-0.08,0.14,0.99,0,-0,-0,0.16,,,,,,,,,,
2043,0,2.51,2.56,13.67,-0.08,0.14,0.99,0,-0,-0,0.16,0,0,0,0.0,0.0,0.0,0.0,0,0,0.0
2048,0,,,,-0.08,0.14,0.99,0,-0,-0,0.16,,,,,,,,,,
2053,0,2.49,2.54,,-0.08,0.14,1.0,0,-0,-0,0.16,,,,,,,,,,
2058,0,,,,-0.08,0.14,0.99,0,-0,-0,0.16,,,,,,,,,,
2063,0,2.52,2.57,,-0.08,0.14,0.99,0,-0,-0,0.16,,,0,,,,,,,
2068,0,,,,-0.08,0.14,0.99,0,-0,-0,0.16,,,,,,,,,,
2073,0,2.53,2.58,,-0.08,0.14,0.99,0,-0,-0,0.16,,,,,,,,,,
2078,0,,,,-0.08,0.14,0.99,0,-0,-0,0.16,,,,,,,,,,
2083,0,2.49,2.54,,-0.08,0.14,0.99,0,-0,-0,0.16,0,0,0,,,,,,,
2088,0,,,,-0.08,0.14,0.99,0,-0,-0,0.16,,,,,,,,,,
2093,0,2.51,2.57,,-0.08,0.14,0.99,0,-0,-0,0.16,,,,,,,,,,
2098,0,,,,-0.08,0.14,0.99,0,-0,-0,0.16,,,,,,,,,,
2103,0,2.53,2.58,,-0.08,0.14,0.99,0,-0,-0,0.16,,,0,,,,,,,
2108,0,,,,-0.08,0.14,0.99,0,-0,-0,0.16,,,,,,,,,,
2113,0,2.5,2.56,,-0.08,0.14,0.99,0,-0,-0,0.16,,,,,,,,,,
2118,0,,,,-0.08,0.14,0.99,0,-0,-0,0.16,,,,,,,,,,
2123,0,2.49,2.54,,-0.08,0.14,0.99,0,-0,-0,0.16,0,0,0,,,,,,,
2128,0,,,,-0.08,0.14,0.99,0,-0,-0,0.16,,,,,,,,,,
2133,0,2.48,2.54,,-0.08,0.14,0.99,0,-0,-0,0.16,,,,,,,,,,
2138,0,,,,-0.08,0.14,0.99,0,-0,-0,0.16,,,,,,,,,,
2143,0,2.5,2.56,,-0.08,0.14,1.0,0,-0,-0,0.16,,,0,0.0,0.0,0.0,0.0,0,0,0.0
2148,0,,,,-0.08,0.14,1.0,0,-0,-0,0.16,,,,,,,,,,
2153,0,2.53,2.58,,-0.08,0.14,1.0,0,-0,-0,0.16,,,,,,,,,,
2158,0,,,,-0.08,0.14,0.99,0,-0,-0,0.16,,,,,,,,,,
2163,0,2.48,2.53,,-0.08,0.14,0.99,0,-0,-0,0.16,0,0,0,,,,,,,
2168,0,,,,-0.08,0.14,0.99,0,-0,-0,0.16,,,,,,,,,,
2173,0,2.52,2.57,,-0.08,0.14,0.99,0,-0,-0,0.16,,,,,,,,,,
2178,0,,,,-0.08,0.14,0.99,0,-0,-0,0.16,,,,,,,,,,
2183,0,2.5,2.55,,-0.08,0.14,0.99,0,-0,-0,0.16,,,0,,,,,,,
2188,0,,,,-0.08,0.14,0.99,0,-0,-0,0.16,,,,,,,,,,
2193,0,2.52,2.56,,-0.08,0.14,0.99,0,-0,-0,0.16,,,,,,,,,,
2198,0,,,,-0.08,0.14,0.99,0,-0,-0,0.16,,,,,,,,,,
2203,0,2.5,2.55,,-0.08,0.14,0.99,0,-0,-0,0.16,0,0,0,,,,,,,
2208,0,,,,-0.08,0.14,0.99,0,-0,-0,0.16,,,,,,,,,,
2213,0,2.53,2.58,,-0.08,0.14,0.99,0,-0,-0,0.16,,,,,,,,,,
2218,0,,,,-0.08,0.14,0.99,0,-0,-0,0.16,,,,,,,,,,
2223,0,2.48,2.55,,-0.08,0.14,0.99,0,-0,-0,0.16,,,0,,,,,,,
2228,0,,,,-0.08,0.14,0.99,0,-0,-0,0.16,,,,,,,,,,
2233,0,2.52,2.58,,-0.08,0.14,0.99,0,-0,-0,0.16,,,,,,,,,,
2238,0,,,,-0.08,0.14,0.99,0,-0,-0,0.16,,,,,,,,,,
2243,0,2.52,2.57,,-0.08,0.14,0.99,0,-0,-0,0.16,0,0,0,0.0,0.0,0.0,0.0,0,0,0.0
2248,0,,,,-0.08,0.14,0.99,0,-0,-0,0.16,,,,,,,,,,
2253,0,2.49,2.55,,-0.08,0.14,0.99,0,-0,-0,0.16,,,,,,,,,,
2258,0,,,,-0.08,0.14,0.99,0,-0,-0,0.16,,,,,,,,,,
2263,0,2.53,2.58,,-0.08,0.14,0.99,0,-0,-0,0.16,,,0,,,,,,,
2268,0,,,,-0.08,0.14,0.99,0,-0,-0,0.16,,,,,,,,,,
2273,0,2.48,2.54,,-0.08,0.14,0.99,0,-0,-0,0.16,,,,,,,,,,
2278,0,,,,-0.08,0.14,0.99,0,-0,-0,0.16,,,,,,,,,,
2283,0,2.52,2.57,,-0.08,0.14,0.99,0,-0,-0,0.16,0,0,0,,,,,,,
2288,0,,,,-0.08,0.14,0.99,0,-0,-0,0.16,,,,,,,,,,
2293,0,2.51,2.54,,-0.08,0.14,0.99,0,-0,-0,0.16,,,,,,,,,,
2298,0,,,,-0.08,0.14,0.99,0,-0,-0,0.16,,,,,,,,,,
2303,0,2.52,2.57,,-0.08,0.14,1.0,0,-0,-0,0.16,,,0,,,,,,,
2308,0,,,,-0.08,0.14,1.0,0,-0,-0,0.16,,,,,,,,,,
2313,0,2.52,2.57,,-0.08,0.14,1.0,0,-0,-0,0.16,,,,,,,,,,
2318,0,,,,-0.08,0.14,1.0,0,-0,-0,0.16,,,,,,,,,,
2323,0,2.52,2.57,,-0.08,0.14,1.0,0,-0,-0,0.16,0,0,0,,,,,,,
2328,0,,,,-0.08,0.14,0.99,0,-0,-0,0.16,,,,,,,,,,
2333,0,2.52,2.57,,-0.08,0.14,0.99,0,-0,-0,0.16,,,,,,,,,,
2338,0,,,,-0.08,0.14,0.99,0,-0,-0,0.16,,,,,,,,,,
2343,0,2.49,2.54,,-0.08,0.14,0.99,0,-0,-0,0.16,,,0,0.0,0.0,0.0,0.0,0,0,0.0
2348,0,,,,-0.08,0.14,0.99,0,-0,-0,0.16,,,,,,,,,,
2353,0,2.53,2.58,,-0.08,0.14,0.99,0,0,-0,0.16,,,,,,,,,,
2358,0,,,,-0.08,0.14,0.99,0,0,-0,0.16,,,,,,,,,,
2363,0,2.52,2.58,,-0.08,0.14,0.99,0,-0,-0,0.16,0,0,0,,,,,,,
2368,0,,,,-0.08,0.14,0.99,0,-0,-0,0.16,,,,,,,,,,
2373,0,2.52,2.56,,-0.08,0.14,0.99,0,-0,-0,0.16,,,,,,,,,,
2378,0,,,,-0.08,0.14,0.99,0,-0,-0,0.16,,,,,,,,,,
2383,0,2.51,2.57,,-0.08,0.14,0.99,0,-0,-0,0.16,,,0,,,,,,,
2388,0,,,,-0.08,0.14,0.99,0,-0,-0,0.16,,,,,,,,,,
2393,0,2.53,2.58,,-0.08,0.14,0.99,0,-0,-0,0.16,,,,,,,,,,
2398,0,,,,-0.08,0.14,0.99,0,-0,-0,0.16,,,,,,,,,,
2403,0,2.52,2.57,,-0.08,0.14,0.99,0,-0,-0,0.16,0,0,0,,,,,,,
2408,0,,,,-0.08,0.14,0.99,0,-0,-0,0.16,,,,,,,,,,
2413,0,2.49,2.54,,-0.08,0.14,0.99,0,-0,-0,0.16,,,,,,,,,,
2418,0,,,,-0.08,0.14,0.99,0,-0,-0,0.16,,,,,,,,,,
2423,0,2.52,2.58,,-0.08,0.14,0.99,0,-0,-0,0.16,,,0,,,,,,,
2428,0,,,,-0.08,0.14,0.99,0,-0,-0,0.16,,,,,,,,,,
2433,0,2.53,2.58,,-0.08,0.14,0.99,0,-0,-0,0.16,,,,,,,,,,
2438,0,,,,-0.08,0.14,0.99,0,-0,-0,0.16,,,,,,,,,,
2443,0,2.49,2.54,,-0.08,0.14,0.99,0,-0,-0,0.16,0,0,0,0.0,0.0,0.0,0.0,0,0,0.0
2448,0,,,,-0.08,0.14,0.99,0,-0,-0,0.16,,,,,,,,,,
2453,0,2.52,2.57,,-0.08,0.14,0.99,0,-0,-0,0.16,,,,,,,,,,
2458,0,,,,-0.08,0.14,0.99,0,-0,-0,0.16,,,,,,,,,,
2463,0,2.53,2.58,,-0.08,0.14,0.99,0,-0,-0,0.16,,,0,,,,,,,
2468,0,,,,-0.08,0.14,0.99,0,-0,-0,0.16,,,,,,,,,,
2473,0,2.5,2.56,,-0.08,0.14,0.99,0,-0,-0,0.16,,,,,,,,,,
2478,0,,,,-0.08,0.14,0.99,0,-0,-0,0.16,,,,,,,,,,
2483,0,2.49,2.54,,-0.08,0.14,0.99,0,-0,-0,0.16,0,0,0,,,,,,,
2488,0,,,,-0.08,0.14,0.99,0,-0,-0,0.16,,,,,,,,,,
2493,0,2.52,2.56,,-0.08,0.14,0.99,0,-0,-0,0.16,,,,,,,,,,
2498,0,,,,-0.08,0.14,0.99,0,-0,-0,0.16,,,,,,,,,,
2503,0,2.49,2.55,,-0.08,0.14,0.99,0,-0,-0,0.16,,,0,,,,,,,
2508,0,,,,-0.08,0.14,0.99,0,-0,-0,0.16,,,,,,,,,,
2513,0,2.48,2.54,,-0.08,0.14,0.99,0,-0,-0,0.16,,,,,,,,,,
2518,0,,,,-0.08,0.14,0.99,0,-0,-0,0.16,,,,,,,,,,
2523,0,2.52,2.58,,-0.08,0.14,0.99,0,-0,-0,0.16,0,0,0,,,,,,,
2528,0,,,,-0.08,0.14,0.99,0,-0,-0,0.16,,,,,,,,,,
2533,0,2.52,2.58,,-0.08,0.14,0.99,0,-0,-0,0.16,,,,,,,,,,
2538,0,,,,-0.08,0.14,0.99,0,-0,-0,0.16,,,,,,,,,,
2543,0,2.49,2.55,,-0.08,0.14,0.99,0,-0,-0,0.16,,,0,0.0,0.0,0.0,0.0,0,0,0.0
2548,0,,,,-0.08,0.14,0.99,0,-0,-0,0.16,,,,,,,,,,
2553,0,2.5,2.55,,-0.08,0.14,0.99,0,-0,-0,0.16,,,,,,,,,,
2558,0,,,,-0.08,0.14,0.99,0,-0,-0,0.16,,,,,,,,,,
2563,0,2.51,2.57,,-0.08,0.14,0.99,0,-0,-0,0.16,0,0,0,,,,,,,
2568,0,,,,-0.08,0.14,0.99,0,-0,-0,0.16,,,,,,,,,,
2573,0,2.53,2.58,,-0.08,0.14,0.99,0,-0,-0,0.16,,,,,,,,,,
2578,0,,,,-0.08,0.14,0.99,0,-0,-0,0.16,,,,,,,,,,
2583,0,2.52,2.58,,-0.08,0.14,0.99,0,-0,-0,0.16,,,0,,,,,,,
2588,0,,,,-0.08,0.14,0.99,0,-0,-0,0.16,,,,,,,,,,
2593,0,2.53,2.58,,-0.08,0.14,0.99,0,-0,-0,0.16,,,,,,,,,,
2598,0,,,,-0.08,0.14,0.99,0,-0,-0,0.16,,,,,,,,,,
2603,0,2.52,2.57,,-0.08,0.14,0.99,0,-0,-0,0.16,0,0,0,,,,,,,
2608,0,,,,-0.08,0.14,0.99,0,-0,-0,0.16,,,,,,,,,,
2613,0,2.52,2.57,,-0.08,0.14,0.99,0,-0,-0,0.16,,,,,,,,,,
2618,0,,,,-0.08,0.14,0.99,0,-0,-0,0.16,,,,,,,,,,
2623,0,2.48,2.54,,-0.08,0.14,0.99,0,-0,-0,0.16,,,0,,,,,,,
2628,0,,,,-0.08,0.14,0.99,0,-0,-0,0.16,,,,,,,,,,
2633,0,2.53,2.58,,-0.08,0.14,0.99,0,-0,-0,0.16,,,,,,,,,,
2638,0,,,,-0.08,0.14,0.99,0,-0,-0,0.16,,,,,,,,,,
2643,0,2.52,2.57,,-0.08,0.14,0.99,0,-0,-0,0.16,0,0,0,0.0,0.0,0.0,0.0,0,0,0.0
2648,0,,,,-0.08,0.14,0.99,0,-0,-0,0.16,,,,,,,,,,
2653,0,2.51,2.56,,-0.08,0.14,0.99,0,-0,-0,0.16,,,,,,,,,,
2658,0,,,,-0.08,0.14,0.99,0,-0,-0,0.16,,,,,,,,,,
2663,0,2.48,2.54,,-0.08,0.14,0.99,0,-0,-0,0.16,,,0,,,,,,,
2668,0,,,,-0.08,0.14,0.99,0,-0,-0,0.16,,,,,,,,,,
2673,0,2.49,2.54,,-0.08,0.14,0.99,0,-0,-0,0.16,,,,,,,,,,
2678,0,,,,-0.08,0.14,0.99,0,-0,-0,0.16,,,,,,,,,,
2683,0,2.51,2.56,,-0.08,0.14,0.99,0,-0,-0,0.16,0,0,0,,,,,,,
2688,0,,,,-0.08,0.14,0.99,0,-0,-0,0.16,,,,,,,,,,
2693,0,2.49,2.54,,-0.08,0.14,0.99,0,-0,-0,0.16,,,,,,,,,,
2698,0,,,,-0.08,0.14,0.99,0,-0,-0,0.16,,,,,,,,,,
2703,0,2.49,2.54,,-0.08,0.14,0.99,0,-0,-0,0.16,,,0,,,,,,,
2708,0,,,,-0.08,0.14,0.99,0,-0,-0,0.16,,,,,,,,,,
2713,0,2.51,2.57,,-0.08,0.14,0.99,0,-0,-0,0.16,,,,,,,,,,
2718,0,,,,-0.08,0.14,0.99,0,-0,-0,0.16,,,,,,,,,,
2723,0,2.53,2.58,,-0.08,0.14,0.99,0,-0,-0,0.16,0,0,0,,,,,,,
2728,0,,,,-0.08,0.14,0.99,0,-0,-0,0.16,,,,,,,,,,
2733,0,2.52,2.58,,-0.08,0.14,0.99,0,-0,-0,0.16,,,,,,,,,,
2738,0,,,,-0.08,0.14,0.99,0,-0,-0,0.16,,,,,,,,,,
2743,0,2.5,2.56,,-0.08,0.14,0.99,0,-0,-0,0.16,,,0,0.0,0.0,0.0,0.0,0,0,0.0
2748,0,,,,-0.08,0.14,0.99,0,-0,-0,0.16,,,,,,,,,,
2753,0,2.49,2.54,,-0.08,0.14,0.99,0,-0,-0,0.16,,,,,,,,,,
2758,0,,,,-0.08,0.14,0.99,0,-0,-0,0.16,,,,,,,,,,
2763,0,2.51,2.57,,-0.08,0.14,0.99,0,-0,-0,0.16,0,0,0,,,,,,,
2768,0,,,,-0.08,0.14,0.99,0,-0,-0,0.16,,,,,,,,,,
2773,0,2.49,2.55,,-0.08,0.14,0.99,0,-0,-0,0.16,,,,,,,,,,
2778,0,,,,-0.08,0.14,0.99,0,-0,-0,0.16,,,,,,,,,,
2783,0,2.53,2.58,,-0.08,0.14,0.99,0,-0,-0,0.16,,,0,,,,,,,
2788,0,,,,-0.08,0.14,0.99,0,-0,-0,0.16,,,,,,,,,,
2793,0,2.51,2.56,,-0.08,0.14,0.99,0,-0,-0,0.16,,,,,,,,,,
2798,0,,,,-0.08,0.14,0.99,0,-0,-0,0.16,,,,,,,,,,
2803,0,2.5,2.56,,-0.08,0.14,0.99,0,-0,-0,0.16,0,0,0,,,,,,,
2808,0,,,,-0.08,0.14,0.99,0,-0,-0,0.16,,,,,,,,,,
2813,0,2.52,2.57,,-0.08,0.14,0.99,0,-0,-0,0.16,,,,,,,,,,
2818,0,,,,-0.08,0.14,0.99,0,-0,-0,0.16,,,,,,,,,,
2823,0,2.52,2.58,,-0.08,0.14,0.99,0,-0,-0,0.16,,,0,,,,,,,
2828,0,,,,-0.08,0.14,0.99,0,-0,-0,0.16,,,,,,,,,,
2833,0,2.52,2.58,,-0.08,0.14,0.99,0,-0,-0,0.16,,,,,,,,,,
2838,0,,,,-0.08,0.14,0.99,0,-0,-0,0.16,,,,,,,,,,
2843,0,2.48,2.53,,-0.08,0.14,0.99,0,-0,-0,0.16,0,0,0,0.0,0.0,0.0,0.0,0,0,0.0
2848,0,,,,-0.08,0.14,0.99,0,-0,-0,0.16,,,,,,,,,,
2853,0,2.53,2.58,,-0.08,0.14,0.99,0,-0,-0,0.16,,,,,,,,,,
2858,0,,,,-0.08,0.14,0.99,0,-0,-0,0.16,,,,,,,,,,
2863,0,2.49,2.54,,-0.08,0.14,0.99,0,-0,-0,0.16,,,0,,,,,,,
2868,0,,,,-0.08,0.14,0.99,0,-0,-0,0.16,,,,,,,,,,
2873,0,2.53,2.58,,-0.08,0.14,0.99,0,-0,-0,0.16,,,,,,,,,,
2878,0,,,,-0.08,0.14,0.99,0,-0,-0,0.16,,,,,,,,,,
2883,0,2.48,2.53,,-0.08,0.14,0.99,0,-0,-0,0.16,0,0,0,,,,,,,
2888,0,,,,-0.08,0.14,0.99,0,-0,-0,0.16,,,,,,,,,,
2893,0,2.53,2.58,,-0.08,0.14,0.99,0,-0,-0,0.16,,,,,,,,,,
2898,0,,,,-0.08,0.14,0.99,0,-0,-0,0.16,,,,,,,,,,
2903,0,2.52,2.57,,-0.08,0.14,0.99,0,-0,-0,0.16,,,0,,,,,,,
2908,0,,,,-0.08,0.14,0.99,0,-0,-0,0.16,,,,,,,,,,
2913,0,2.48,2.53,,-0.08,0.14,0.99,0,-0,-0,0.16,,,,,,,,,,
2918,0,,,,-0.08,0.14,0.99,0,-0,-0,0.16,,,,,,,,,,
2923,0,2.53,2.58,,-0.08,0.14,0.99,0,-0,-0,0.16,0,0,0,,,,,,,
2928,0,,,,-0.08,0.14,0.99,0,-0,-0,0.16,,,,,,,,,,
2933,0,2.52,2.57,,-0.08,0.14,0.99,0,-0,-0,0.16,,,,,,,,,,
2938,0,,,,-0.08,0.14,0.99,0,-0,-0,0.16,,,,,,,,,,
2943,0,2.51,2.56,,-0.08,0.14,0.99,0,-0,-0,0.16,,,0,0.0,0.0,0.0,0.0,0,0,0.0
2948,0,,,,-0.08,0.14,0.99,0,-0,-0,0.16,,,,,,,,,,
2953,0,2.52,2.57,,-0.08,0.14,0.99,0,-0,-0,0.16,,,,,,,,,,
2958,0,,,,-0.08,0.14,0.99,0,-0,-0,0.16,,,,,,,,,,
2963,0,2.48,2.56,,-0.08,0.14,0.99,0,-0,-0,0.16,0,0,0,,,,,,,
2968,0,,,,-0.08,0.14,0.99,0,-0,-0,0.16,,,,,,,,,,
2973,0,2.52,2.58,,-0.08,0.14,0.99,0,-0,-0,0.16,,,,,,,,,,
2978,0,,,,-0.08,0.14,0.99,0,-0,-0,0.16,,,,,,,,,,
2983,0,2.51,2.56,,-0.08,0.14,0.99,0,-0,-0,0.16,,,0,,,,,,,
2988,0,,,,-0.08,0.14,0.99,0,-0,-0,0.16,,,,,,,,,,
2993,0,2.49,2.55,,-0.08,0.14,0.99,0,-0,-0,0.16,,,,,,,,,,
2998,0,,,,-0.08,0.14,0.99,0,-0,-0,0.16,,,,,,,,,,
3003,0,2.52,2.57,,-0.08,0.14,0.99,0,-0,-0,0.16,0,0,0,,,,,,,
3008,0,,,,-0.08,0.14,0.99,0,-0,-0,0.16,,,,,,,,,,
3013,0,2.51,2.57,,-0.08,0.14,0.99,0,-0,-0,0.16,,,,,,,,,,
3018,0,,,,-0.08,0.14,0.99,0,-0,-0,0.16,,,,,,,,,,
3023,0,2.52,2.57,,-0.08,0.14,0.99,0,-0,-0,0.16,,,0,,,,,,,
3028,0,,,,-0.08,0.14,0.99,0,-0,-0,0.16,,,,,,,,,,
3033,0,2.49,2.53,,-0.08,0.14,0.99,0,-0,-0,0.16,,,,,,,,,,
3038,0,,,,-0.08,0.14,0.99,0,-0,-0,0.16,,,,,,,,,,
3043,0,2.52,2.57,13.65,-0.08,0.14,0.99,0,-0,-0,0.16,0,0,0,0.0,0.0,0.0,0.0,0,0,0.0
3048,0,,,,-0.08,0.14,0.99,0,-0,-0,0.16,,,,,,,,,,
3053,0,2.52,2.57,,-0.08,0.14,0.99,0,-0,-0,0.16,,,,,,,,,,
3058,0,,,,-0.08,0.14,0.99,0,-0,-0,0.16,,,,,,,,,,
3063,0,2.52,2.58,,-0.08,0.14,0.99,0,-0,-0,0.16,,,0,,,,,,,
3068,0,,,,-0.08,0.14,0.99,0,-0,-0,0.16,,,,,,,,,,
3073,0,2.52,2.57,,-0.08,0.14,0.99,0,-0,-0,0.16,,,,,,,,,,
3078,0,,,,-0.08,0.14,0.99,0,-0,-0,0.16,,,,,,,,,,
3083,0,2.5,2.56,,-0.08,0.14,0.99,0,-0,-0,0.16,0,0,0,,,,,,,
3088,0,,,,-0.08,0.14,0.99,0,-0,-0,0.16,,,,,,,,,,
3093,0,2.53,2.58,,-0.08,0.14,0.99,0,-0,-0,0.16,,,,,,,,,,
3098,0,,,,-0.08,0.14,0.99,0,-0,-0,0.16,,,,,,,,,,
3103,0,2.49,2.54,,-0.08,0.14,0.99,0,-0,-0,0.16,,,0,,,,,,,
3108,0,,,,-0.08,0.14,0.99,0,-0,-0,0.16,,,,,,,,,,
3113,0,2.52,2.57,,-0.08,0.14,0.99,0,-0,-0,0.16,,,,,,,,,,
3118,0,,,,-0.08,0.14,0.99,0,-0,-0,0.16,,,,,,,,,,
3123,0,2.51,2.56,,-0.08,0.14,0.99,0,-0,-0,0.16,0,0,0,,,,,,,
3128,0,,,,-0.08,0.14,0.99,0,-0,-0,0.16,,,,,,,,,,
3133,0,2.5,2.55,,-0.08,0.14,0.99,0,-0,-0,0.16,,,,,,,,,,
3138,0,,,,-0.08,0.14,0.99,0,-0,-0,0.16,,,,,,,,,,
3143,0,2.49,2.55,,-0.08,0.14,0.99,0,-0,-0,0.16,,,0,0.0,0.0,0.0,0.0,0,0,0.0
3148,0,,,,-0.08,0.14,0.99,0,-0,-0,0.16,,,,,,,,,,
3153,0,2.51,2.56,,-0.08,0.14,0.99,0,-0,-0,0.16,,,,,,,,,,
3158,0,,,,-0.08,0.14,0.99,0,-0,-0,0.16,,,,,,,,,,
3163,0,2.51,2.54,,-0.08,0.14,0.99,0,-0,-0,0.16,0,0,0,,,,,,,
3168,0,,,,-0.08,0.14,0.99,0,-0,-0,0.16,,,,,,,,,,
3173,0,2.48,2.53,,-0.08,0.14,0.99,0,-0,-0,0.16,,,,,,,,,,
3178,0,,,,-0.08,0.14,0.99,0,-0,-0,0.16,,,,,,,,,,
3183,0,2.5,2.56,,-0.08,0.14,0.99,0,-0,-0,0.16,,,0,,,,,,,
3188,0,,,,-0.08,0.14,0.99,0,-0,-0,0.16,,,,,,,,,,
3193,0,2.5,2.55,,-0.08,0.14,0.99,0,-0,-0,0.16,,,,,,,,,,
3198,0,,,,-0.08,0.14,0.99,0,-0,-0,0.16,,,,,,,,,,
3203,0,2.53,2.58,,-0.08,0.14,0.99,0,-0,-0,0.16,0,0,0,,,,,,,
3208,0,,,,-0.08,0.14,0.99,0,-0,-0,0.16,,,,,,,,,,
3213,0,2.51,2.56,,-0.08,0.14,0.99,0,-0,-0,0.16,,,,,,,,,,
3218,0,,,,-0.08,0.14,0.99,0,-0,-0,0.16,,,,,,,,,,
3223,0,2.48,2.54,,-0.08,0.14,0.99,0,-0,-0,0.16,,,0,,,,,,,
3228,0,,,,-0.08,0.14,0.99,0,-0,-0,0.16,,,,,,,,,,
3233,0,2.51,2.54,,-0.08,0.14,0.99,0,-0,-0,0.16,,,,,,,,,,
3238,0,,,,-0.08,0.14,0.99,0,-0,-0,0.16,,,,,,,,,,
3243,0,2.52,2.57,,-0.08,0.14,0.99,0,-0,-0,0.16,0,0,0,0.0,0.0,0.0,0.0,0,0,0.0
3248,0,,,,-0.08,0.14,0.99,0,-0,-0,0.16,,,,,,,,,,
3253,0,2.48,2.53,,-0.08,0.14,0.99,0,-0,-0,0.16,,,,,,,,,,
3258,0,,,,-0.08,0.14,0.99,0,-0,-0,0.16,,,,,,,,,,
3263,0,2.52,2.57,,-0.08,0.14,0.99,0,-0,-0,0.16,,,0,,,,,,,
3268,0,,,,-0.08,0.14,0.99,0,-0,-0,0.16,,,,,,,,,,
3273,0,2.53,2.58,,-0.08,0.14,0.99,0,-0,-0,0.16,,,,,,,,,,
3278,0,,,,-0.08,0.14,0.99,0,-0,-0,0.16,,,,,,,,,,
3283,0,2.52,2.57,,-0.08,0.14,0.99,0,-0,-0,0.16,0,0,0,,,,,,,
3288,0,,,,-0.08,0.14,0.99,0,-0,-0,0.16,,,,,,,,,,
3293,0,2.48,2.53,,-0.08,0.14,0.99,0,-0,-0,0.16,,,,,,,,,,
3298,0,,,,-0.08,0.14,0.99,0,-0,-0,0.16,,,,,,,,,,
3303,0,2.52,2.57,,-0.08,0.14,0.99,0,-0,-0,0.16,,,0,,,,,,,
3308,0,,,,-0.08,0.14,0.99,0,-0,-0,0.16,,,,,,,,,,
3313,0,2.49,2.54,,-0.08,0.14,0.99,0,-0,-0,0.16,,,,,,,,,,
3318,0,,,,-0.08,0.14,0.99,0,-0,-0,0.16,,,,,,,,,,
3323,0,2.51,2.56,,-0.08,0.14,0.99,0,-0,-0,0.16,0,0,0,,,,,,,
3328,0,,,,-0.08,0.14,0.99,0,-0,-0,0.16,,,,,,,,,,
3333,0,2.52,2.58,,-0.08,0.14,0.99,0,-0,-0,0.16,,,,,,,,,,
3338,0,,,,-0.08,0.14,0.99,0,-0,-0,0.16,,,,,,,,,,
3343,0,2.51,2.56,,-0.08,0.14,0.99,0,-0,-0,0.16,,,0,0.0,0.0,0.0,0.0,0,0,0.0
3348,0,,,,-0.08,0.14,0.99,0,-0,-0,0.16,,,,,,,,,,
3353,0,2.53,2.58,,-0.08,0.14,0.99,0,-0,-0,0.16,,,,,,,,,,
3358,0,,,,-0.08,0.14,0.99,0,-0,-0,0.16,,,,,,,,,,
3363,0,2.48,2.53,,-0.08,0.14,0.99,0,-0,-0,0.16,0,0,0,,,,,,,
3368,0,,,,-0.08,0.14,0.99,0,-0,-0,0.16,,,,,,,,,,
3373,0,2.52,2.57,,-0.08,0.14,0.99,0,-0,-0,0.16,,,,,,,,,,
3378,0,,,,-0.08,0.14,0.99,0,-0,-0,0.16,,,,,,,,,,
3383,0,2.48,2.54,,-0.08,0.14,0.99,0,-0,-0,0.16,,,0,,,,,,,
3388,0,,,,-0.08,0.14,0.99,0,-0,-0,0.16,,,,,,,,,,
3393,0,2.52,2.57,,-0.08,0.14,0.99,0,-0,-0,0.16,,,,,,,,,,
3398,0,,,,-0.08,0.14,0.99,0,-0,-0,0.16,,,,,,,,,,
3403,0,2.51,2.56,,-0.08,0.14,0.99,0,-0,-0,0.16,0,0,0,,,,,,,
3408,0,,,,-0.08,0.14,0.99,0,-0,-0,0.16,,,,,,,,,,
3413,0,2.52,2.57,,-0.08,0.14,0.99,0,-0,-0,0.16,,,,,,,,,,
3418,0,,,,-0.08,0.14,0.99,0,-0,-0,0.16,,,,,,,,,,
3423,0,2.5,2.56,,-0.08,0.14,0.99,0,-0,-0,0.16,,,0,,,,,,,
3428,0,,,,-0.08,0.14,1.0,0,-0,-0,0.16,,,,,,,,,,
3433,0,2.48,2.55,,-0.08,0.14,1.0,0,-0,-0,0.16,,,,,,,,,,
3438,0,,,,-0.08,0.14,1.0,0,-0,-0,0.16,,,,,,,,,,
3443,0,2.52,2.58,,-0.08,0.14,0.99,0,-0,-0,0.16,0,0,0,0.0,0.0,0.0,0.0,0,0,0.0
3448,0,,,,-0.08,0.14,1.0,0,-0,-0,0.16,,,,,,,,,,
3453,0,2.53,2.58,,-0.08,0.14,0.99,0,-0,-0,0.16,,,,,,,,,,
3458,0,,,,-0.08,0.14,0.99,0,-0,-0,0.16,,,,,,,,,,
3463,0,2.53,2.58,,-0.08,0.14,0.99,0,-0,-0,0.16,,,0,,,,,,,
3468,0,,,,-0.08,0.14,0.99,0,-0,-0,0.16,,,,,,,,,,
3473,0,2.52,2.58,,-0.08,0.14,0.99,0,-0,-0,0.16,,,,,,,,,,
3478,0,,,,-0.08,0.14,0.99,0,-0,-0,0.16,,,,,,,,,,
3483,0,2.48,2.53,,-0.08,0.14,0.99,0,-0,-0,0.16,0,0,0,,,,,,,
3488,0,,,,-0.08,0.14,0.99,0,-0,-0,0.16,,,,,,,,,,
3493,0,2.51,2.56,,-0.08,0.14,0.99,0,-0,-0,0.16,,,,,,,,,,
3498,0,,,,-0.08,0.14,0.99,0,-0,-0,0.16,,,,,,,,,,
3503,0,2.52,2.58,,-0.08,0.14,0.99,0,-0,-0,0.16,,,0,,,,,,,
3508,0,,,,-0.08,0.14,0.99,0,-0,-0,0.16,,,,,,,,,,
3513,0,2.52,2.57,,-0.08,0.14,0.99,0,-0,-0,0.16,,,,,,,,,,
3518,0,,,,-0.08,0.14,0.99,0,-0,-0,0.16,,,,,,,,,,
3523,0,2.52,2.58,,-0.08,0.14,0.99,0,-0,-0,0.16,0,0,0,,,,,,,
3528,0,,,,-0.08,0.14,0.99,0,-0,-0,0.16,,,,,,,,,,
3533,0,2.51,2.56,,-0.08,0.14,0.99,0,-0,-0,0.16,,,,,,,,,,
3538,0,,,,-0.08,0.14,0.99,0,-0,-0,0.16,,,,,,,,,,
3543,0,2.49,2.54,,-0.08,0.14,0.99,0,-0,-0,0.16,,,0,0.0,0.0,0.0,0.0,0,0,0.0
3548,0,,,,-0.08,0.14,0.99,0,-0,-0,0.16,,,,,,,,,,
3553,0,2.53,2.58,,-0.08,0.14,0.99,0,-0,-0,0.16,,,,,,,,,,
3558,0,,,,-0.08,0.14,0.99,0,-0,-0,0.16,,,,,,,,,,
3563,0,2.49,2.54,,-0.08,0.14,0.99,0,-0,-0,0.16,0,0,0,,,,,,,
3568,0,,,,-0.08,0.14,0.99,0,-0,-0,0.16,,,,,,,,,,
3573,0,2.52,2.58,,-0.08,0.14,0.99,0,-0,-0,0.16,,,,,,,,,,
3578,0,,,,-0.08,0.14,0.99,0,-0,-0,0.16,,,,,,,,,,
3583,0,2.52,2.57,,-0.08,0.14,0.99,0,-0,-0,0.16,,,0,,,,,,,
3588,0,,,,-0.08,0.14,0.99,0,-0,-0,0.16,,,,,,,,,,
3593,0,2.48,2.53,,-0.08,0.14,0.99,0,-0,-0,0.16,,,,,,,,,,
3598,0,,,,-0.08,0.14,0.99,0,-0,-0,0.16,,,,,,,,,,
3603,0,2.53,2.58,,-0.08,0.14,0.99,0,-0,-0,0.16,0,0,0,,,,,,,
3608,0,,,,-0.08,0.14,0.99,0,-0,-0,0.16,,,,,,,,,,
3613,0,2.52,2.57,,-0.08,0.14,0.99,0,-0,-0,0.16,,,,,,,,,,
3618,0,,,,-0.08,0.14,0.99,0,-0,-0,0.16,,,,,,,,,,
3623,0,2.52,2.58,,-0.08,0.14,0.99,0,-0,-0,0.16,,,0,,,,,,,
3628,0,,,,-0.08,0.14,0.99,0,-0,-0,0.16,,,,,,,,,,
3633,0,2.52,2.56,,-0.08,0.14,0.99,0,-0,-0,0.16,,,,,,,,,,
3638,0,,,,-0.08,0.14,0.99,0,-0,-0,0.16,,,,,,,,,,
3643,0,2.5,2.56,,-0.08,0.14,0.99,0,-0,-0,0.16,0,0,0,0.0,0.0,0.0,0.0,0,0,0.0
3648,0,,,,-0.08,0.14,0.99,0,-0,-0,0.16,,,,,,,,,,
3653,0,2.53,2.58,,-0.08,0.14,0.99,0,-0,-0,0.16,,,,,,,,,,
3658,0,,,,-0.08,0.14,0.99,0,-0,-0,0.16,,,,,,,,,,
3663,0,2.53,2.58,,-0.08,0.14,0.99,0,-0,-0,0.16,,,0,,,,,,,
3668,0,,,,-0.08,0.14,0.99,0,-0,-0,0.16,,,,,,,,,,
3673,0,2.52,2.57,,-0.08,0.14,0.99,0,-0,-0,0.16,,,,,,,,,,
3678,0,,,,-0.08,0.14,0.99,0,-0,-0,0.16,,,,,,,,,,
3683,0,2.5,2.56,,-0.08,0.14,0.99,0,-0,-0,0.16,0,0,0,,,,,,,
3688,0,,,,-0.08,0.14,0.99,0,-0,-0,0.16,,,,,,,,,,
3693,0,2.49,2.54,,-0.08,0.14,0.99,0,-0,-0,0.16,,,,,,,,,,
3698,0,,,,-0.08,0.14,0.99,0,-0,-0,0.16,,,,,,,,,,
3703,0,2.52,2.58,,-0.08,0.14,0.99,0,-0,-0,0.16,,,0,,,,,,,
3708,0,,,,-0.08,0.14,0.99,0,-0,-0,0.16,,,,,,,,,,
3713,0,2.52,2.57,,-0.08,0.14,0.99,0,-0,-0,0.16,,,,,,,,,,
3718,0,,,,-0.08,0.14,0.99,0,-0,-0,0.16,,,,,,,,,,
3723,0,2.52,2.57,,-0.08,0.14,0.99,0,-0,-0,0.16,0,0,0,,,,,,,
3728,0,,,,-0.08,0.14,0.99,0,-0,-0,0.16,,,,,,,,,,
3733,0,2.5,2.55,,-0.08,0.14,0.99,0,-0,-0,0.16,,,,,,,,,,
3738,0,,,,-0.08,0.14,0.99,0,-0,-0,0.16,,,,,,,,,,
3743,0,2.5,2.56,,-0.08,0.14,0.99,0,-0,-0,0.16,,,0,0.0,0.0,0.0,0.0,0,0,0.0
3748,0,,,,-0.08,0.14,0.99,0,-0,-0,0.16,,,,,,,,,,
3753,0,2.53,2.58,,-0.08,0.14,0.99,0,-0,-0,0.16,,,,,,,,,,
3758,0,,,,-0.08,0.14,0.99,0,-0,-0,0.16,,,,,,,,,,
3763,0,2.48,2.54,,-0.08,0.14,0.99,0,-0,-0,0.16,0,0,0,,,,,,,
3768,0,,,,-0.08,0.14,0.99,0,-0,-0,0.16,,,,,,,,,,
3773,0,2.53,2.57,,-0.08,0.14,0.99,0,-0,-0,0.16,,,,,,,,,,
3778,0,,,,-0.08,0.14,0.99,0,-0,-0,0.16,,,,,,,,,,
3783,0,2.49,2.54,,-0.08,0.14,0.99,0,-0,-0,0.16,,,0,,,,,,,
3788,0,,,,-0.08,0.14,0.99,0,-0,-0,0.16,,,,,,,,,,
3793,0,2.53,2.58,,-0.08,0.14,0.99,0,-0,-0,0.16,,,,,,,,,,
3798,0,,,,-0.08,0.14,0.99,0,-0,-0,0.16,,,,,,,,,,
3803,0,2.53,2.58,,-0.08,0.14,0.99,0,-0,-0,0.16,0,0,0,,,,,,,
3808,0,,,,-0.08,0.14,0.99,0,-0,-0,0.16,,,,,,,,,,
3813,0,2.49,2.54,,-0.08,0.14,0.99,0,-0,-0,0.16,,,,,,,,,,
3818,0,,,,-0.08,0.14,0.99,0,-0,-0,0.16,,,,,,,,,,
3823,0,2.5,2.55,,-0.08,0.14,0.99,0,-0,-0,0.16,,,0,,,,,,,
3828,0,,,,-0.08,0.14,0.99,0,-0,-0,0.16,,,,,,,,,,
3833,0,2.49,2.55,,-0.08,0.14,0.99,0,-0,-0,0.16,,,,,,,,,,
3838,0,,,,-0.08,0.14,0.99,0,-0,-0,0.16,,,,,,,,,,
3843,0,2.5,2.56,,-0.08,0.14,0.99,0,-0,-0,0.16,0,0,0,0.0,0.0,0.0,0.0,0,0,0.0
3848,0,,,,-0.08,0.14,0.99,0,-0,-0,0.16,,,,,,,,,,
3853,0,2.53,2.58,,-0.08,0.14,1.0,0,-0,-0,0.16,,,,,,,,,,
3858,0,,,,-0.08,0.14,1.0,0,-0,-0,0.16,,,,,,,,,,
3863,0,2.48,2.53,,-0.08,0.14,1.0,0,-0,-0,0.16,,,0,,,,,,,
3868,0,,,,-0.08,0.14,1.0,0,-0,-0,0.16,,,,,,,,,,
3873,0,2.52,2.58,,-0.08,0.14,0.99,0,-0,-0,0.16,,,,,,,,,,
3878,0,,,,-0.08,0.14,0.99,0,-0,-0,0.16,,,,,,,,,,
3883,0,2.53,2.58,,-0.08,0.14,0.99,0,-0,-0,0.16,0,0,0,,,,,,,
3888,0,,,,-0.08,0.14,0.99,0,-0,-0,0.16,,,,,,,,,,
3893,0,2.49,2.55,,-0.08,0.14,0.99,0,-0,-0,0.16,,,,,,,,,,
3898,0,,,,-0.08,0.14,0.99,0,-0,-0,0.16,,,,,,,,,,
3903,0,2.53,2.57,,-0.08,0.14,0.99,0,-0,-0,0.16,,,0,,,,,,,
3908,0,,,,-0.08,0.14,0.99,0,-0,-0,0.16,,,,,,,,,,
3913,0,2.52,2.57,,-0.08,0.14,0.99,0,-0,-0,0.16,,,,,,,,,,
3918,0,,,,-0.08,0.14,0.99,0,-0,-0,0.16,,,,,,,,,,
3923,0,2.51,2.57,,-0.08,0.14,0.99,0,-0,-0,0.16,0,0,0,,,,,,,
3928,0,,,,-0.08,0.14,0.99,0,-0,-0,0.16,,,,,,,,,,
3933,0,2.52,2.58,,-0.08,0.14,0.99,0,-0,-0,0.16,,,,,,,,,,
3938,0,,,,-0.08,0.14,0.99,0,-0,-0,0.16,,,,,,,,,,
3943,0,2.49,2.54,,-0.08,0.14,0.99,0,-0,-0,0.16,,,0,0.0,0.0,0.0,0.0,0,0,0.0
3948,0,,,,-0.08,0.14,0.99,0,-0,-0,0.16,,,,,,,,,,
3953,0,2.53,2.58,,-0.08,0.14,0.99,0,-0,-0,0.16,,,,,,,,,,
3958,0,,,,-0.08,0.14,0.99,0,-0,-0,0.16,,,,,,,,,,
3963,0,2.48,2.54,,-0.08,0.14,0.99,0,-0,-0,0.16,0,0,0,,,,,,,
3968,0,,,,-0.08,0.14,0.99,0,-0,-0,0.16,,,,,,,,,,
3973,0,2.53,2.56,,-0.08,0.14,0.99,0,-0,-0,0.16,,,,,,,,,,
3978,0,,,,-0.08,0.14,0.99,0,-0,-0,0.16,,,,,,,,,,
3983,0,2.53,2.58,,-0.08,0.14,0.99,0,-0,-0,0.16,,,0,,,,,,,
3988,0,,,,-0.08,0.14,0.99,0,-0,-0,0.16,,,,,,,,,,
3993,0,2.52,2.57,,-0.08,0.14,0.99,0,-0,-0,0.16,,,,,,,,,,
3998,0,,,,-0.08,0.14,0.99,0,-0,-0,0.16,,,,,,,,,,
4003,0,2.48,2.54,,-0.08,0.14,0.99,0,-0,-0,0.16,0,0,0,,,,,,,
4008,0,,,,-0.08,0.14,0.99,0,-0,-0,0.16,,,,,,,,,,
4013,0,2.52,2.57,,-0.08,0.14,0.99,0,-0,-0,0.16,,,,,,,,,,
4018,0,,,,-0.08,0.14,0.99,0,-0,-0,0.16,,,,,,,,,,
4023,0,2.51,2.57,,-0.08,0.14,0.99,0,-0,-0,0.16,,,0,,,,,,,
4028,0,,,,-0.08,0.14,0.99,0,-0,-0,0.16,,,,,,,,,,
4033,0,2.53,2.58,,-0.08,0.14,0.99,0,-0,-0,0.16,,,,,,,,,,
4038,0,,,,-0.08,0.14,0.99,0,-0,-0,0.16,,,,,,,,,,
4043,0,2.52,2.57,13.67,-0.08,0.14,0.99,0,-0,-0,0.16,0,0,0,0.0,0.0,0.0,0.0,0,0,0.0
4048,0,,,,-0.08,0.14,1.0,0,-0,-0,0.16,,,,,,,,,,
4053,0,2.52,2.58,,-0.08,0.14,1.0,0,-0,-0,0.16,,,,,,,,,,
4058,0,,,,-0.08,0.14,1.0,0,-0,-0,0.16,,,,,,,,,,
4063,0,2.52,2.57,,-0.08,0.14,1.0,0,-0,-0,0.16,,,0,,,,,,,
4068,0,,,,-0.08,0.14,1.0,0,-0,-0,0.16,,,,,,,,,,
4073,0,2.48,2.54,,-0.08,0.14,1.0,0,-0,-0,0.16,,,,,,,,,,
4078,0,,,,-0.08,0.14,0.99,0,-0,-0,0.16,,,,,,,,,,
4083,0,2.49,2.54,,-0.08,0.14,0.99,0,-0,-0,0.16,0,0,0,,,,,,,
4088,0,,,,-0.08,0.14,0.99,0,-0,-0,0.16,,,,,,,,,,
4093,0,2.5,2.55,,-0.08,0.14,0.99,0,-0,-0,0.16,,,,,,,,,,
4098,0,,,,-0.08,0.14,0.99,0,-0,-0,0.16,,,,,,,,,,
4103,0,2.52,2.58,,-0.08,0.14,0.99,0,-0,-0,0.16,,,0,,,,,,,
4108,0,,,,-0.08,0.14,0.99,0,-0,-0,0.16,,,,,,,,,,
4113,0,2.51,2.56,,-0.08,0.14,0.99,0,-0,-0,0.16,,,,,,,,,,
4118,0,,,,-0.08,0.14,0.99,0,-0,-0,0.16,,,,,,,,,,
4123,0,2.52,2.57,,-0.08,0.14,0.99,0,-0,-0,0.16,0,0,0,,,,,,,
4128,0,,,,-0.08,0.14,0.99,0,-0,-0,0.16,,,,,,,,,,
4133,0,2.52,2.57,,-0.08,0.14,0.99,0,-0,-0,0.16,,,,,,,,,,
4138,0,,,,-0.08,0.14,0.99,0,-0,-0,0.16,,,,,,,,,,
4143,0,2.48,2.54,,-0.08,0.14,0.99,0,-0,-0,0.16,,,0,0.0,0.0,0.0,0.0,0,0,0.0
4148,0,,,,-0.08,0.14,0.99,0,-0,-0,0.16,,,,,,,,,,
4153,0,2.51,2.56,,-0.08,0.14,0.99,0,-0,-0,0.16,,,,,,,,,,
4158,0,,,,-0.08,0.14,0.99,0,-0,-0,0.16,,,,,,,,,,
4163,0,2.52,2.57,,-0.08,0.14,0.99,0,-0,-0,0.16,0,0,0,,,,,,,
4168,0,,,,-0.08,0.14,0.99,0,-0,-0,0.16,,,,,,,,,,
4173,0,2.52,2.58,,-0.08,0.14,0.99,0,-0,-0,0.16,,,,,,,,,,
4178,0,,,,-0.08,0.14,0.99,0,-0,-0,0.16,,,,,,,,,,
4183,0,2.52,2.57,,-0.08,0.14,0.99,0,-0,-0,0.16,,,0,,,,,,,
4188,0,,,,-0.08,0.14,0.99,0,-0,-0,0.16,,,,,,,,,,
4193,0,2.51,2.56,,-0.08,0.14,0.99,0,-0,-0,0.16,,,,,,,,,,
4198,0,,,,-0.08,0.14,0.99,0,-0,-0,0.16,,,,,,,,,,
4203,0,2.48,2.53,,-0.08,0.14,0.99,0,-0,-0,0.16,0,0,0,,,,,,,
4208,0,,,,-0.08,0.14,0.99,0,-0,-0,0.16,,,,,,,,,,
4213,0,2.51,2.56,,-0.08,0.14,0.99,0,-0,-0,0.16,,,,,,,,,,
4218,0,,,,-0.08,0.14,0.99,0,-0,-0,0.16,,,,,,,,,,
4223,0,2.52,2.57,,-0.08,0.14,0.99,0,-0,-0,0.16,,,0,,,,,,,
4228,0,,,,-0.08,0.14,0.99,0,-0,-0,0.16,,,,,,,,,,
4233,0,2.49,2.53,,-0.08,0.14,0.99,0,-0,-0,0.16,,,,,,,,,,
4238,0,,,,-0.08,0.14,0.99,0,-0,-0,0.16,,,,,,,,,,
4243,0,2.51,2.56,,-0.08,0.14,0.99,0,-0,-0,0.16,0,0,0,0.0,0.0,0.0,0.0,0,0,0.0
4248,0,,,,-0.08,0.14,0.99,0,-0,-0,0.16,,,,,,,,,,
4253,0,2.51,2.56,,-0.08,0.14,0.99,0,-0,-0,0.16,,,,,,,,,,
4258,0,,,,-0.08,0.14,0.99,0,-0,-0,0.16,,,,,,,,,,
4263,0,2.51,2.56,,-0.08,0.14,0.99,0,-0,-0,0.16,,,0,,,,,,,
4268,0,,,,-0.08,0.14,0.99,0,-0,-0,0.16,,,,,,,,,,
4273,0,2.52,2.57,,-0.08,0.14,0.99,0,-0,-0,0.16,,,,,,,,,,
4278,0,,,,-0.08,0.14,0.99,0,-0,-0,0.16,,,,,,,,,,
4283,0,2.52,2.57,,-0.08,0.14,0.99,0,-0,-0,0.16,0,0,0,,,,,,,
4288,0,,,,-0.08,0.14,0.99,0,-0,-0,0.16,,,,,,,,,,
4293,0,2.52,2.57,,-0.08,0.14,0.99,0,-0,-0,0.16,,,,,,,,,,
4298,0,,,,-0.08,0.14,0.99,0,-0,-0,0.16,,,,,,,,,,
4303,0,2.52,2.58,,-0.08,0.14,0.99,0,-0,-0,0.16,,,0,,,,,,,
4308,0,,,,-0.08,0.14,0.99,0,-0,-0,0.16,,,,,,,,,,
4313,0,2.5,2.56,,-0.08,0.14,0.99,0,-0,-0,0.16,,,,,,,,,,
4318,0,,,,-0.08,0.14,0.99,0,-0,-0,0.16,,,,,,,,,,
4323,0,2.48,2.54,,-0.08,0.14,0.99,0,-0,-0,0.16,0,0,0,,,,,,,
4328,0,,,,-0.08,0.14,0.99,0,-0,-0,0.16,,,,,,,,,,
4333,0,2.53,2.58,,-0.08,0.14,0.99,0,-0,-0,0.16,,,,,,,,,,
4338,0,,,,-0.08,0.14,0.99,0,-0,-0,0.16,,,,,,,,,,
4343,0,2.52,2.58,,-0.08,0.14,0.99,0,-0,-0,0.16,,,0,0.0,0.0,0.0,0.0,0,0,0.0
4348,0,,,,-0.08,0.14,0.99,0,-0,-0,0.16,,,,,,,,,,
4353,0,2.52,2.57,,-0.08,0.14,0.99,0,-0,-0,0.16,,,,,,,,,,
4358,0,,,,-0.08,0.14,0.99,0,-0,-0,0.16,,,,,,,,,,
4363,0,2.52,2.58,,-0.08,0.14,0.99,0,-0,-0,0.16,0,0,0,,,,,,,
4368,0,,,,-0.08,0.14,0.99,0,-0,-0,0.16,,,,,,,,,,
4373,0,2.48,2.54,,-0.08,0.14,0.99,0,-0,-0,0.17,,,,,,,,,,
4378,0,,,,-0.08,0.14,0.99,0,-0,-0,0.17,,,,,,,,,,
4383,0,2.53,2.58,,-0.08,0.14,0.99,0,-0,-0,0.17,,,0,,,,,,,
4388,0,,,,-0.08,0.14,0.99,0,-0,-0,0.17,,,,,,,,,,
4393,0,2.49,2.55,,-0.08,0.14,0.99,0,-0,-0,0.17,,,,,,,,,,
4398,0,,,,-0.08,0.14,0.99,0,-0,-0,0.17,,,,,,,,,,
4403,0,2.52,2.58,,-0.08,0.14,0.99,0,-0,-0,0.17,0,0,0,,,,,,,
4408,0,,,,-0.08,0.14,0.99,0,-0,-0,0.17,,,,,,,,,,
4413,0,2.48,2.53,,-0.08,0.14,0.99,0,-0,-0,0.17,,,,,,,,,,
4418,0,,,,-0.08,0.14,0.99,0,-0,-0,0.17,,,,,,,,,,
4423,0,2.52,2.57,,-0.08,0.14,0.99,0,-0,-0,0.17,,,0,,,,,,,
4428,0,,,,-0.08,0.14,0.99,0,-0,-0,0.17,,,,,,,,,,
4433,0,2.51,2.56,,-0.08,0.14,0.99,0,-0,-0,0.16,,,,,,,,,,
4438,0,,,,-0.08,0.14,0.99,0,-0,-0,0.16,,,,,,,,,,
4443,0,2.52,2.58,,-0.08,0.14,0.99,0,-0,-0,0.16,0,0,0,0.0,0.0,0.0,0.0,0,0,0.0
4448,0,,,,-0.08,0.14,0.99,0,-0,-0,0.16,,,,,,,,,,
4453,0,2.49,2.54,,-0.08,0.14,0.99,0,-0,-0,0.16,,,,,,,,,,
4458,0,,,,-0.08,0.14,0.99,0,-0,-0,0.17,,,,,,,,,,
4463,0,2.52,2.58,,-0.08,0.14,0.99,0,-0,-0,0.16,,,0,,,,,,,
4468,0,,,,-0.08,0.14,0.99,0,-0,-0,0.16,,,,,,,,,,
4473,0,2.48,2.54,,-0.08,0.14,0.99,0,-0,-0,0.16,,,,,,,,,,
4478,0,,,,-0.08,0.14,0.99,0,-0,-0,0.16,,,,,,,,,,
4483,0,2.52,2.57,,-0.08,0.14,0.99,0,-0,-0,0.16,0,0,0,,,,,,,
4488,0,,,,-0.08,0.14,0.99,0,-0,-0,0.16,,,,,,,,,,
4493,0,2.49,2.54,,-0.08,0.14,0.99,0,-0,-0,0.16,,,,,,,,,,
4498,0,,,,-0.08,0.14,0.99,0,-0,-0,0.16,,,,,,,,,,
4503,0,2.53,2.58,,-0.08,0.14,0.99,0,-0,-0,0.16,,,0,,,,,,,
4508,0,,,,-0.08,0.14,0.99,0,-0,-0,0.16,,,,,,,,,,
4513,0,2.52,2.57,,-0.08,0.14,0.99,0,-0,-0,0.16,,,,,,,,,,
4518,0,,,,-0.08,0.14,0.99,0,-0,-0,0.16,,,,,,,,,,
4523,0,2.51,2.56,,-0.08,0.14,0.99,0,-0,-0,0.16,0,0,0,,,,,,,
4528,0,,,,-0.08,0.14,0.99,0,-0,-0,0.16,,,,,,,,,,
4533,0,2.49,2.55,,-0.08,0.14,0.99,0,-0,-0,0.16,,,,,,,,,,
4538,0,,,,-0.08,0.14,0.99,0,-0,-0,0.16,,,,,,,,,,
4543,0,2.52,2.57,,-0.08,0.14,0.99,0,-0,-0,0.16,,,0,0.0,0.0,0.0,0.0,0,0,0.0
4548,0,,,,-0.08,0.14,0.99,0,-0,-0,0.16,,,,,,,,,,
4553,0,2.52,2.57,,-0.08,0.14,0.99,0,-0,-0,0.16,,,,,,,,,,
4558,0,,,,-0.09,0.14,0.99,0,-0,-0,0.17,,,,,,,,,,
4563,0,2.5,2.55,,-0.09,0.14,0.99,0,-0,-0,0.16,0,0,0,,,,,,,
4568,0,,,,-0.09,0.14,1.0,0,-0,-0,0.16,,,,,,,,,,
4573,0,2.52,2.58,,-0.09,0.14,1.0,0,-0,-0,0.17,,,,,,,,,,
4578,0,,,,-0.09,0.14,1.0,0,-0,-0,0.17,,,,,,,,,,
4583,0,2.52,2.57,,-0.09,0.14,1.0,0,-0,-0,0.17,,,0,,,,,,,
4588,0,,,,-0.09,0.14,1.0,0,-0,-0,0.16,,,,,,,,,,
4593,0,2.51,2.56,,-0.09,0.14,1.0,0,-0,-0,0.16,,,,,,,,,,
4598,0,,,,-0.08,0.14,0.99,0,-0,-0,0.16,,,,,,,,,,
4603,0,2.52,2.58,,-0.08,0.14,0.99,0,-0,-0,0.16,0,0,0,,,,,,,
4608,0,,,,-0.08,0.14,0.99,0,-0,-0,0.16,,,,,,,,,,
4613,0,2.49,2.54,,-0.08,0.14,0.99,0,-0,-0,0.16,,,,,,,,,,
4618,0,,,,-0.08,0.14,0.99,0,-0,-0,0.16,,,,,,,,,,
4623,0,2.52,2.58,,-0.08,0.14,0.99,0,-0,-0,0.16,,,0,,,,,,,
4628,0,,,,-0.08,0.14,0.99,0,-0,-0,0.16,,,,,,,,,,
4633,0,2.51,2.57,,-0.08,0.14,0.99,0,-0,-0,0.16,,,,,,,,,,
4638,0,,,,-0.08,0.14,0.99,0,-0,-0,0.16,,,,,,,,,,
4643,0,2.5,2.54,,-0.08,0.14,0.99,0,-0,-0,0.16,0,0,0,0.0,0.0,0.0,0.0,0,0,0.0
4648,0,,,,-0.08,0.14,0.99,0,-0,-0,0.16,,,,,,,,,,
4653,0,2.51,2.56,,-0.08,0.14,0.99,0,-0,-0,0.16,,,,,,,,,,
4658,0,,,,-0.08,0.14,0.99,0,-0,-0,0.16,,,,,,,,,,
4663,0,2.53,2.58,,-0.08,0.14,0.99,0,-0,-0,0.16,,,0,,,,,,,
4668,0,,,,-0.08,0.14,0.99,0,-0,-0,0.16,,,,,,,,,,
4673,0,2.5,2.56,,-0.08,0.14,0.99,0,-0,-0,0.16,,,,,,,,,,
4678,0,,,,-0.08,0.14,0.99,0,-0,-0,0.16,,,,,,,,,,
4683,0,2.53,2.58,,-0.08,0.14,0.99,0,-0,-0,0.16,0,0,0,,,,,,,
4688,0,,,,-0.08,0.14,0.99,0,-0,-0,0.16,,,,,,,,,,
4693,0,2.52,2.57,,-0.08,0.14,0.99,0,-0,-0,0.16,,,,,,,,,,
4698,0,,,,-0.08,0.14,0.99,0,-0,-0,0.16,,,,,,,,,,
4703,0,2.52,2.57,,-0.08,0.14,0.99,0,-0,-0,0.16,,,0,,,,,,,
4708,0,,,,-0.08,0.14,0.99,0,-0,-0,0.16,,,,,,,,,,
4713,0,2.48,2.54,,-0.08,0.14,0.99,0,-0,-0,0.16,,,,,,,,,,
4718,0,,,,-0.08,0.14,0.99,0,-0,-0,0.16,,,,,,,,,,
4723,0,2.48,2.53,,-0.08,0.14,0.99,0,-0,-0,0.16,0,0,0,,,,,,,
4728,0,,,,-0.08,0.14,0.99,0,-0,-0,0.16,,,,,,,,,,
4733,0,2.48,2.53,,-0.08,0.14,0.99,0,-0,-0,0.16,,,,,,,,,,
4738,0,,,,-0.08,0.14,0.99,0,-0,-0,0.16,,,,,,,,,,
4743,0,2.52,2.58,,-0.08,0.14,0.99,0,-0,-0,0.16,,,0,0.0,0.0,0.0,0.0,0,0,0.0
4748,0,,,,-0.08,0.14,0.99,0,-0,-0,0.16,,,,,,,,,,
4753,0,2.52,2.57,,-0.08,0.14,0.99,0,-0,-0,0.16,,,,,,,,,,
4758,0,,,,-0.08,0.14,0.99,0,-0,-0,0.16,,,,,,,,,,
4763,0,2.51,2.56,,-0.08,0.14,0.99,0,-0,-0,0.16,0,0,0,,,,,,,
4768,0,,,,-0.08,0.14,0.99,0,-0,-0,0.16,,,,,,,,,,
4773,0,2.51,2.54,,-0.08,0.14,0.99,0,-0,-0,0.16,,,,,,,,,,
4778,0,,,,-0.08,0.14,1.0,0,-0,-0,0.16,,,,,,,,,,
4783,0,2.49,2.54,,-0.08,0.14,1.0,0,-0,-0,0.16,,,0,,,,,,,
4788,0,,,,-0.08,0.14,1.0,0,-0,-0,0.16,,,,,,,,,,
4793,0,2.51,2.56,,-0.08,0.14,1.0,0,-0,-0,0.16,,,,,,,,,,
4798,0,,,,-0.08,0.14,1.0,0,-0,-0,0.16,,,,,,,,,,
4803,0,2.53,2.58,,-0.08,0.14,1.0,0,-0,-0,0.16,0,0,0,,,,,,,
4808,0,,,,-0.08,0.14,1.0,0,-0,-0,0.16,,,,,,,,,,
4813,0,2.53,2.58,,-0.08,0.14,1.0,0,-0,-0,0.16,,,,,,,,,,
4818,0,,,,-0.08,0.14,1.0,0,-0,-0,0.16,,,,,,,,,,
4823,0,2.53,2.58,,-0.08,0.14,1.0,0,-0,-0,0.16,,,0,,,,,,,
4828,0,,,,-0.08,0.14,1.0,0,-0,-0,0.16,,,,,,,,,,
4833,0,2.52,2.58,,-0.08,0.14,1.0,0,-0,-0,0.16,,,,,,,,,,
4838,0,,,,-0.08,0.14,0.99,0,-0,-0,0.16,,,,,,,,,,
4843,0,2.53,2.58,,-0.08,0.14,0.99,0,-0,-0,0.16,0,0,0,0.0,0.0,0.0,0.0,0,0,0.0
4848,0,,,,-0.08,0.14,0.99,0,-0,-0,0.16,,,,,,,,,,
4853,0,2.53,2.58,,-0.08,0.14,0.99,0,-0,-0,0.16,,,,,,,,,,
4858,0,,,,-0.08,0.14,0.99,0,-0,-0,0.16,,,,,,,,,,
4863,0,2.52,2.57,,-0.08,0.14,0.99,0,-0,-0,0.16,,,0,,,,,,,
4868,0,,,,-0.08,0.14,0.99,0,-0,-0,0.16,,,,,,,,,,
4873,0,2.52,2.57,,-0.08,0.14,0.99,0,-0,-0,0.16,,,,,,,,,,
4878,0,,,,-0.08,0.14,0.99,0,-0,-0,0.16,,,,,,,,,,
4883,0,2.5,2.55,,-0.08,0.14,0.99,0,-0,-0,0.16,0,0,0,,,,,,,
4888,0,,,,-0.08,0.14,0.99,0,-0,-0,0.16,,,,,,,,,,
4893,0,2.5,2.56,,-0.08,0.14,0.99,0,-0,-0,0.16,,,,,,,,,,
4898,0,,,,-0.08,0.14,0.99,0,-0,-0,0.16,,,,,,,,,,
4903,0,2.5,2.55,,-0.08,0.14,0.99,0,-0,-0,0.16,,,0,,,,,,,
4908,0,,,,-0.08,0.14,0.99,0,-0,-0,0.16,,,,,,,,,,
4913,0,2.5,2.57,,-0.08,0.14,0.99,0,-0,-0,0.16,,,,,,,,,,
4918,0,,,,-0.08,0.14,0.99,0,-0,-0,0.16,,,,,,,,,,
4923,0,2.52,2.57,,-0.08,0.14,0.99,0,-0,-0,0.16,0,0,0,,,,,,,
4928,0,,,,-0.08,0.14,0.99,0,-0,-0,0.16,,,,,,,,,,
4933,0,2.52,2.58,,-0.08,0.14,0.99,0,-0,-0,0.16,,,,,,,,,,
4938,0,,,,-0.08,0.14,0.99,0,-0,-0,0.16,,,,,,,,,,
4943,0,2.53,2.58,,-0.08,0.14,0.99,0,-0,-0,0.16,,,0,0.0,0.0,0.0,0.0,0,0,0.0
4948,0,,,,-0.08,0.14,0.99,0,-0,-0,0.16,,,,,,,,,,
4953,0,2.53,2.58,,-0.08,0.14,0.99,0,-0,-0,0.16,,,,,,,,,,
4958,0,,,,-0.08,0.14,0.99,0,-0,-0,0.16,,,,,,,,,,
4963,0,2.52,2.58,,-0.08,0.14,1.0,0,-0,-0,0.16,0,0,0,,,,,,,
4968,0,,,,-0.08,0.14,0.99,0,-0,-0,0.16,,,,,,,,,,
4973,0,2.51,2.56,,-0.08,0.14,0.99,0,-0,-0,0.16,,,,,,,,,,
4978,0,,,,-0.08,0.14,0.99,0,-0,-0,0.16,,,,,,,,,,
4983,0,2.49,2.54,,-0.08,0.14,0.99,0,-0,-0,0.16,,,0,,,,,,,
4988,0,,,,-0.08,0.14,0.99,0,-0,-0,0.16,,,,,,,,,,
4993,0,2.48,2.54,,-0.08,0.14,0.99,0,-0,-0,0.16,,,,,,,,,,
4998,0,,,,-0.08,0.14,0.99,0,-0,-0,0.16,,,,,,,,,,
5003,0,2.5,2.55,,-0.08,0.14,0.99,0,-0,-0,0.16,0,0,0,,,,,,,
5008,0,,,,-0.08,0.14,0.99,0,-0,-0,0.16,,,,,,,,,,
5013,0,2.52,2.57,,-0.08,0.14,0.99,0,-0,-0,0.16,,,,,,,,,,
5018,0,,,,-0.08,0.14,0.99,0,-0,-0,0.16,,,,,,,,,,
5023,0,2.53,2.58,,-0.08,0.14,0.99,0,-0,-0,0.16,,,0,,,,,,,
5028,0,,,,-0.08,0.14,0.99,0,-0,-0,0.16,,,,,,,,,,
5033,0,2.49,2.54,,-0.08,0.14,0.99,0,-0,-0,0.16,,,,,,,,,,
5038,0,,,,-0.08,0.14,0.99,0,-0,-0,0.16,,,,,,,,,,
5043,0,2.53,2.57,13.67,-0.08,0.14,0.99,0,-0,-0,0.16,0,0,0,0.0,0.0,0.0,0.0,0,0,0.0
5048,0,,,,-0.08,0.14,0.99,0,-0,-0,0.16,,,,,,,,,,
5053,0,2.48,2.54,,-0.08,0.14,0.99,0,-0,-0,0.16,,,,,,,,,,
5058,0,,,,-0.08,0.14,0.99,0,-0,-0,0.16,,,,,,,,,,
5063,0,2.53,2.58,,-0.08,0.14,0.99,0,-0,-0,0.16,,,0,,,,,,,
5068,0,,,,-0.08,0.14,0.99,0,-0,-0,0.16,,,,,,,,,,
5073,0,2.48,2.54,,-0.08,0.14,0.99,0,-0,-0,0.16,,,,,,,,,,
5078,0,,,,-0.08,0.14,0.99,0,-0,-0,0.16,,,,,,,,,,
5083,0,2.52,2.57,,-0.08,0.14,1.0,0,-0,-0,0.16,0,0,0,,,,,,,
5088,0,,,,-0.08,0.14,1.0,0,-0,-0,0.16,,,,,,,,,,
5093,0,2.53,2.58,,-0.08,0.14,1.0,0,-0,-0,0.16,,,,,,,,,,
5098,0,,,,-0.08,0.14,1.0,0,-0,-0,0.16,,,,,,,,,,
5103,0,2.51,2.55,,-0.08,0.14,1.0,0,-0,-0,0.16,,,0,,,,,,,
5108,0,,,,-0.08,0.14,1.0,0,-0,-0,0.16,,,,,,,,,,
5113,0,2.49,2.54,,-0.08,0.14,0.99,0,-0,-0,0.16,,,,,,,,,,
5118,0,,,,-0.09,0.15,0.98,0,-1,-0,0.17,,,,,,,,,,
5123,0,2.5,2.55,,-0.08,0.14,0.95,0,-1,0,0.17,0,0,0,,,,,,,
5128,0,,,,-0.08,0.15,0.92,0,-1,0,0.17,,,,,,,,,,
5133,0,2.52,2.58,,-0.09,0.15,0.91,0,-1,0,0.17,,,,,,,,,,
5138,0,,,,-0.08,0.14,0.9,0,-1,0,0.16,,,,,,,,,,
5143,0,2.51,2.56,,-0.09,0.14,0.91,0,-1,0,0.17,,,0,0.0,0.0,0.0,0.0,0,0,0.0
5148,0,,,,-0.08,0.14,0.91,0,-0,0,0.16,,,,,,,,,,
5153,0,2.48,2.53,,-0.08,0.14,0.9,0,-0,0,0.16,,,,,,,,,,
5158,0,,,,-0.08,0.14,0.91,0,-0,0,0.16,,,,,,,,,,
5163,0,2.52,2.57,,-0.08,0.14,0.91,0,-0,0,0.17,0,0,0,,,,,,,
5168,0,,,,-0.08,0.15,0.91,0,-0,-0,0.17,,,,,,,,,,
5173,0,2.49,2.54,,-0.08,0.14,0.91,0,-0,-0,0.16,,,,,,,,,,
5178,0,,,,-0.08,0.14,0.92,0,-0,-0,0.16,,,,,,,,,,
5183,0,2.53,2.58,,-0.07,0.14,0.91,0,-0,-0,0.15,,,0,,,,,,,
5188,0,,,,-0.06,0.13,0.92,0,-0,-0,0.14,,,,,,,,,,
5193,0,2.52,2.57,,-0.05,0.13,0.91,0,-0,-0,0.14,,,,,,,,,,
5198,0,,,,-0.05,0.13,0.92,0,-0,-0,0.14,,,,,,,,,,
5203,0,2.52,2.57,,-0.04,0.13,0.94,0,-0,-0,0.14,0,0,0,,,,,,,
5208,0,,,,-0.05,0.13,0.97,0,-0,-0,0.14,,,,,,,,,,
5213,0,2.49,2.54,,-0.05,0.13,0.98,0,-0,-0,0.14,,,,,,,,,,
5218,0,,,,-0.06,0.13,0.99,0,-0,-0,0.15,,,,,,,,,,
5223,0,2.53,2.58,,-0.06,0.13,0.99,0,-0,-0,0.14,,,0,,,,,,,
5228,0,,,,-0.07,0.13,1.0,0,-0,-0,0.15,,,,,,,,,,
5233,0,2.49,2.54,,-0.08,0.13,0.99,0,-0,-0,0.15,,,,,,,,,,
5238,0,,,,-0.08,0.13,0.99,0,-0,-0,0.15,,,,,,,,,,
5243,0,2.53,2.58,,-0.08,0.13,0.99,0,-0,-0,0.15,0,0,0,0.0,0.0,0.0,0.0,0,0,0.0
5248,0,,,,-0.08,0.14,0.98,0,-0,0,0.16,,,,,,,,,,
5253,0,2.53,2.58,,-0.09,0.14,0.99,0,0,0,0.17,,,,,,,,,,
5258,0,,,,-0.09,0.14,0.98,0,0,0,0.17,,,,,,,,,,
5263,0,2.49,2.54,,-0.09,0.15,0.98,0,0,0,0.17,,,0,,,,,,,
5268,0,,,,-0.09,0.15,0.98,0,0,-0,0.17,,,,,,,,,,
5273,0,2.53,2.58,,-0.09,0.15,0.98,0,0,-0,0.17,,,,,,,,,,
5278,0,,,,-0.09,0.14,0.97,0,0,-0,0.17,,,,,,,,,,
5283,0,2.48,2.54,,-0.09,0.14,0.97,0,0,-0,0.17,0,0,0,,,,,,,
5288,0,,,,-0.09,0.14,0.97,0,0,-0,0.17,,,,,,,,,,
5293,0,2.53,2.58,,-0.09,0.14,0.97,0,-0,-0,0.17,,,,,,,,,,
5298,0,,,,-0.09,0.14,0.97,0,-0,-0,0.17,,,,,,,,,,
5303,0,2.48,2.53,,-0.09,0.14,0.97,0,-0,-0,0.17,,,0,,,,,,,
5308,0,,,,-0.09,0.15,0.97,1,-0,-0,0.17,,,,,,,,,,
5313,0,2.52,2.57,,-0.09,0.15,0.97,1,-0,-0,0.17,,,,,,,,,,
5318,0,,,,-0.09,0.15,0.97,1,-0,-0,0.17,,,,,,,,,,
5323,0,2.5,2.55,,-0.09,0.15,0.98,1,-0,-0,0.17,0,0,0,,,,,,,
5328,0,,,,-0.09,0.15,0.98,1,-0,-0,0.17,,,,,,,,,,
5333,0,2.5,2.56,,-0.09,0.15,0.98,1,-0,-0,0.17,,,,,,,,,,
5338,0,,,,-0.09,0.15,0.99,1,-0,-0,0.17,,,,,,,,,,
5343,0,2.49,2.54,,-0.09,0.15,0.99,1,-0,-0,0.17,,,0,0.0,0.0,0.0,0.0,0,0,0.0
5348,0,,,,-0.09,0.15,0.99,1,-0,-0,0.17,,,,,,,,,,
5353,0,2.52,2.57,,-0.08,0.15,0.99,0,-0,-0,0.17,,,,,,,,,,
5358,0,,,,-0.08,0.15,0.99,0,-0,-0,0.17,,,,,,,,,,
5363,0,2.53,2.58,,-0.08,0.15,1.0,0,-0,-0,0.17,0,0,0,,,,,,,
5368,0,,,,-0.08,0.15,1.0,0,-0,-0,0.17,,,,,,,,,,
5373,0,2.53,2.58,,-0.08,0.14,1.0,0,-0,-0,0.16,,,,,,,,,,
5378,0,,,,-0.07,0.14,1.0,0,-0,-0,0.16,,,,,,,,,,
5383,0,2.52,2.58,,-0.07,0.14,1.0,0,-0,-0,0.16,,,0,,,,,,,
5388,0,,,,-0.07,0.14,1.0,0,-0,-0,0.15,,,,,,,,,,
5393,0,2.5,2.56,,-0.07,0.13,1.0,0,-0,-0,0.15,,,,,,,,,,
5398,0,,,,-0.07,0.13,1.0,0,-0,-0,0.15,,,,,,,,,,
5403,0,2.5,2.55,,-0.07,0.13,1.0,0,-0,-0,0.15,0,0,0,,,,,,,
5408,0,,,,-0.07,0.13,1.0,0,-0,-0,0.15,,,,,,,,,,
5413,0,2.51,2.56,,-0.07,0.13,1.0,0,-0,-0,0.15,,,,,,,,,,
5418,0,,,,-0.07,0.13,1.0,0,-0,-0,0.15,,,,,,,,,,
5423,0,2.5,2.56,,-0.07,0.13,1.0,0,-0,-0,0.15,,,0,,,,,,,
5428,0,,,,-0.07,0.13,1.0,0,-0,-0,0.15,,,,,,,,,,
5433,0,2.52,2.57,,-0.07,0.13,0.99,0,0,-0,0.14,,,,,,,,,,
5438,0,,,,-0.07,0.13,0.99,0,0,-0,0.15,,,,,,,,,,
5443,0,2.53,2.58,,-0.07,0.13,0.98,0,0,-0,0.15,0,0,0,0.0,0.0,0.0,0.0,0,0,0.0
5448,0,,,,-0.07,0.13,0.98,0,0,-0,0.15,,,,,,,,,,
5453,0,2.49,2.54,,-0.07,0.13,0.98,0,0,-0,0.15,,,,,,,,,,
5458,0,,,,-0.07,0.13,0.98,0,0,-0,0.15,,,,,,,,,,
5463,0,2.48,2.53,,-0.07,0.13,0.98,0,0,-0,0.15,,,0,,,,,,,
5468,0,,,,-0.07,0.13,0.98,0,0,-0,0.15,,,,,,,,,,
5473,0,2.53,2.58,,-0.08,0.13,0.98,0,0,-0,0.15,,,,,,,,,,
5478,0,,,,-0.08,0.14,0.99,0,0,-0,0.16,,,,,,,,,,
5483,0,2.5,2.55,,-0.08,0.14,0.99,0,0,-0,0.16,0,0,0,,,,,,,
5488,0,,,,-0.08,0.14,0.99,0,0,-0,0.16,,,,,,,,,,
5493,0,2.5,2.55,,-0.08,0.15,0.99,0,0,-0,0.17,,,,,,,,,,
5498,0,,,,-0.08,0.15,0.99,0,0,-0,0.17,,,,,,,,,,
5503,0,2.53,2.58,,-0.08,0.15,0.99,0,0,-0,0.17,,,0,,,,,,,
5508,0,,,,-0.09,0.15,0.99,0,0,-0,0.17,,,,,,,,,,
5513,0,2.52,2.57,,-0.09,0.15,0.99,0,0,0,0.17,,,,,,,,,,
5518,0,,,,-0.09,0.15,0.98,0,0,0,0.17,,,,,,,,,,
5523,0,2.51,2.56,,-0.09,0.15,0.98,0,0,0,0.17,0,0,0,,,,,,,
5528,0,,,,-0.09,0.15,0.98,0,0,0,0.17,,,,,,,,,,
5533,0,2.53,2.58,,-0.09,0.15,0.98,0,0,0,0.17,,,,,,,,,,
5538,0,,,,-0.09,0.15,0.98,0,0,0,0.17,,,,,,,,,,
5543,0,2.52,2.57,,-0.09,0.15,0.98,0,0,0,0.17,,,0,0.0,0.0,0.0,0.0,0,0,0.0
5548,0,,,,-0.1,0.14,0.98,0,0,0,0.17,,,,,,,,,,
5553,0,2.5,2.55,,-0.1,0.14,0.98,0,-0,0,0.17,,,,,,,,,,
5558,0,,,,-0.1,0.14,0.97,0,-0,0,0.17,,,,,,,,,,
5563,0,2.5,2.56,,-0.11,0.14,0.98,0,0,0,0.18,0,360,0,,,,,,,
5568,0,,,,-0.1,0.13,1.0,0,-0,0,0.17,,,,,,,,,,
