"Interval"|"ms"|0|0|1,"Utc"|"ms"|0|0|1,"Analog1"|"Volts"|0.0|5.0|100,"Analog2"|"Volts"|0.0|5.0|100,"Battery"|"Volts"|0.0|20.0|1,"AccelX"|"G"|-3.0|3.0|200,"AccelY"|"G"|-3.0|3.0|200,"AccelZ"|"G"|-3.0|3.0|200,"Yaw"|"Deg/Sec"|-120|120|200,"Pitch"|"Deg/Sec"|-120|120|200,"Roll"|"Deg/Sec"|-120|120|200,"Gsum"|"G"|0.0|3.0|200,"RPM"|"rpm"|0|8000|25,"RPM2"|"rpm"|0|8000|25,"GPIO1"|""|0.0|1.0|50,"Latitude"|"Degrees"|-180.0|180.0|10,"Longitude"|"Degrees"|-180.0|180.0|10,"Speed"|"mph"|0.0|150.0|10,"Altitude"|"ft"|0.0|4000.0|10,"GPSSats"|""|0|20|10,"GPSQual"|""|0|5|10,"GPSDOP"|""|0.0|20.0|10
173,0,2.53,2.54,,-0.02,0.01,1.0,0,-0,-0,0.02,,,,,,,,,,
178,0,,,,-0.02,0.01,1.0,0,-0,-0,0.02,,,,,,,,,,
183,0,2.54,2.54,,-0.02,0.01,1.0,0,-0,-0,0.02,,,0,,,,,,,
188,0,,,,-0.02,0.01,1.0,0,-0,-0,0.02,,,,,,,,,,
193,0,2.54,2.53,,-0.02,0.01,1.0,0,-0,-0,0.02,,,,,,,,,,
198,0,,,,-0.02,0.01,1.0,0,-0,-0,0.02,,,,,,,,,,
203,0,2.58,2.54,,-0.02,0.01,1.0,0,-0,-0,0.02,0,0,0,,,,,,,
208,0,,,,-0.02,0.01,1.0,0,-0,-0,0.02,,,,,,,,,,
213,0,2.59,2.56,,-0.02,0.0,1.0,0,-0,-0,0.02,,,,,,,,,,
218,0,,,,-0.02,0.0,1.0,0,-0,-0,0.02,,,,,,,,,,
223,0,2.55,2.52,,-0.02,0.0,1.0,0,-0,-0,0.02,,,0,,,,,,,
228,0,,,,-0.02,0.0,1.0,0,-0,-0,0.02,,,,,,,,,,
233,0,2.57,2.53,,-0.02,0.0,1.0,0,-0,-0,0.02,,,,,,,,,,
238,0,,,,-0.02,0.0,1.0,0,-0,-0,0.02,,,,,,,,,,
243,0,2.55,2.52,,-0.02,0.01,1.0,0,-0,-0,0.02,0,0,0,0.0,0.0,0.0,0.0,0,0,0.0
248,0,,,,-0.02,0.01,1.0,0,-0,-0,0.02,,,,,,,,,,
253,0,2.58,2.54,,-0.02,0.01,1.0,0,-0,-0,0.02,,,,,,,,,,
258,0,,,,-0.02,0.01,1.0,0,-0,-0,0.02,,,,,,,,,,
263,0,2.58,2.55,,-0.02,0.01,1.0,0,-0,-0,0.02,,,0,,,,,,,
268,0,,,,-0.02,0.01,1.0,0,-0,-0,0.02,,,,,,,,,,
273,0,2.55,2.51,,-0.02,0.01,1.0,0,-0,-0,0.02,,,,,,,,,,
278,0,,,,-0.02,0.01,1.0,0,-0,-0,0.02,,,,,,,,,,
283,0,2.54,2.52,,-0.02,0.01,1.0,0,-0,-0,0.02,0,0,0,,,,,,,
288,0,,,,-0.02,0.01,1.0,0,-0,-0,0.02,,,,,,,,,,
293,0,2.55,2.52,,-0.02,0.01,1.0,0,-0,-0,0.02,,,,,,,,,,
298,0,,,,-0.01,0.01,1.0,0,-0,-0,0.02,,,,,,,,,,
303,0,2.58,2.55,,-0.01,0.01,1.0,0,-0,-0,0.02,,,0,,,,,,,
308,0,,,,-0.01,0.01,1.0,0,-0,-0,0.02,,,,,,,,,,
313,0,2.58,2.55,,-0.01,0.01,1.0,0,-0,-0,0.02,,,,,,,,,,
318,0,,,,-0.01,0.01,1.0,0,-0,-0,0.02,,,,,,,,,,
323,0,2.59,2.55,,-0.01,0.01,1.0,0,-0,-0,0.02,0,0,0,,,,,,,
328,0,,,,-0.01,0.01,1.0,0,-0,-0,0.02,,,,,,,,,,
333,0,2.58,2.54,,-0.01,0.01,1.0,0,-0,-0,0.02,,,,,,,,,,
338,0,,,,-0.01,0.01,1.0,0,-0,-0,0.02,,,,,,,,,,
343,0,2.57,2.54,,-0.01,0.01,1.0,0,-0,-0,0.02,,,0,0.0,0.0,0.0,0.0,0,0,0.0
348,0,,,,-0.01,0.01,1.0,0,-0,-0,0.02,,,,,,,,,,
353,0,2.55,2.52,,-0.01,0.01,1.0,0,-0,-0,0.02,,,,,,,,,,
358,0,,,,-0.01,0.01,1.0,0,-0,-0,0.02,,,,,,,,,,
363,0,2.59,2.55,,-0.01,0.01,1.0,0,-0,-0,0.02,0,0,0,,,,,,,
368,0,,,,-0.01,0.01,1.0,0,-0,-0,0.02,,,,,,,,,,
373,0,2.58,2.54,,-0.01,0.01,1.0,0,-0,-0,0.02,,,,,,,,,,
378,0,,,,-0.01,0.01,1.0,0,-0,-0,0.02,,,,,,,,,,
383,0,2.55,2.52,,-0.01,0.01,1.0,0,-0,-0,0.02,,,0,,,,,,,
388,0,,,,-0.01,0.01,1.0,0,-0,-0,0.02,,,,,,,,,,
393,0,2.54,2.51,,-0.01,0.01,1.0,0,-0,-0,0.02,,,,,,,,,,
398,0,,,,-0.01,0.01,1.0,0,-0,-0,0.02,,,,,,,,,,
403,0,2.58,2.55,,-0.01,0.01,1.0,0,-0,-0,0.02,0,0,0,,,,,,,
408,0,,,,-0.01,0.01,1.0,0,-0,-0,0.02,,,,,,,,,,
413,0,2.58,2.55,,-0.01,0.01,1.0,0,-0,-0,0.01,,,,,,,,,,
418,0,,,,-0.01,0.01,1.0,0,-0,-0,0.01,,,,,,,,,,
423,0,2.56,2.52,,-0.01,0.01,1.0,0,-0,-0,0.01,,,0,,,,,,,
428,0,,,,-0.01,0.01,1.0,0,-0,-0,0.02,,,,,,,,,,
433,0,2.54,2.51,,-0.01,0.01,1.0,0,-0,-0,0.02,,,,,,,,,,
438,0,,,,-0.01,0.01,1.0,0,-0,-0,0.02,,,,,,,,,,
443,0,2.56,2.53,,-0.01,0.01,1.0,0,-0,-0,0.02,0,0,0,0.0,0.0,0.0,0.0,0,0,0.0
448,0,,,,-0.01,0.01,1.0,0,-0,-0,0.02,,,,,,,,,,
453,0,2.58,2.54,,-0.01,0.01,0.99,0,-0,-0,0.02,,,,,,,,,,
458,0,,,,-0.01,0.01,0.99,0,-0,-0,0.02,,,,,,,,,,
463,0,2.58,2.55,,-0.02,0.01,1.0,0,-0,-0,0.02,,,0,,,,,,,
468,0,,,,-0.02,0.01,1.0,0,-0,-0,0.02,,,,,,,,,,
473,0,2.56,2.53,,-0.02,0.01,1.0,0,-0,-0,0.02,,,,,,,,,,
478,0,,,,-0.02,0.01,1.0,0,-0,-0,0.02,,,,,,,,,,
483,0,2.59,2.56,,-0.02,0.01,1.0,0,-0,-0,0.02,0,0,0,,,,,,,
488,0,,,,-0.02,0.01,1.0,0,-0,-0,0.02,,,,,,,,,,
493,0,2.58,2.55,,-0.02,0.01,1.0,0,-0,-0,0.02,,,,,,,,,,
498,0,,,,-0.02,0.01,1.0,0,-0,-0,0.02,,,,,,,,,,
503,0,2.54,2.52,,-0.02,0.01,1.0,0,-0,-0,0.02,,,0,,,,,,,
508,0,,,,-0.02,0.01,1.0,0,-0,-0,0.02,,,,,,,,,,
513,0,2.58,2.55,,-0.02,0.01,1.0,0,-0,-0,0.02,,,,,,,,,,
518,0,,,,-0.02,0.01,1.0,0,-0,-0,0.02,,,,,,,,,,
523,0,2.57,2.54,,-0.02,0.01,1.0,0,-0,-0,0.02,0,0,0,,,,,,,
528,0,,,,-0.02,0.01,1.0,0,-0,-0,0.02,,,,,,,,,,
533,0,2.58,2.54,,-0.02,0.01,1.0,0,-0,-0,0.02,,,,,,,,,,
538,0,,,,-0.02,0.01,1.0,0,-0,-0,0.02,,,,,,,,,,
543,0,2.58,2.55,,-0.02,0.01,1.0,0,-0,-0,0.02,,,0,0.0,0.0,0.0,0.0,0,0,0.0
548,0,,,,-0.02,0.01,1.0,0,-0,-0,0.02,,,,,,,,,,
553,0,2.55,2.52,,-0.02,0.01,1.0,0,-0,-0,0.02,,,,,,,,,,
558,0,,,,-0.02,0.01,1.0,0,-0,-0,0.02,,,,,,,,,,
563,0,2.58,2.55,,-0.02,0.01,1.0,0,-0,-0,0.02,0,0,0,,,,,,,
568,0,,,,-0.02,0.01,1.0,0,-0,-0,0.02,,,,,,,,,,
573,0,2.55,2.52,,-0.02,0.01,1.0,0,-0,-0,0.02,,,,,,,,,,
578,0,,,,-0.02,0.01,1.0,0,-0,-0,0.02,,,,,,,,,,
583,0,2.58,2.55,,-0.02,0.01,1.0,0,-0,-0,0.02,,,0,,,,,,,
588,0,,,,-0.02,0.01,1.0,0,-0,-0,0.02,,,,,,,,,,
593,0,2.58,2.55,,-0.02,0.01,1.0,0,-0,-0,0.02,,,,,,,,,,
598,0,,,,-0.02,0.01,1.0,0,-0,-0,0.02,,,,,,,,,,
603,0,2.54,2.51,,-0.02,0.01,1.0,0,-0,-0,0.02,0,0,0,,,,,,,
608,0,,,,-0.02,0.01,1.0,0,-0,-0,0.02,,,,,,,,,,
613,0,2.58,2.55,,-0.02,0.01,1.0,0,-0,-0,0.02,,,,,,,,,,
618,0,,,,-0.02,0.01,1.0,0,-0,-0,0.02,,,,,,,,,,
623,0,2.57,2.54,,-0.02,0.01,1.0,0,-0,-0,0.02,,,0,,,,,,,
628,0,,,,-0.02,0.01,1.0,0,-0,-0,0.02,,,,,,,,,,
633,0,2.56,2.53,,-0.02,0.01,1.0,0,-0,-0,0.02,,,,,,,,,,
638,0,,,,-0.02,0.01,1.0,0,-0,-0,0.02,,,,,,,,,,
643,0,2.58,2.55,,-0.02,0.01,1.0,0,-0,-0,0.02,0,0,0,0.0,0.0,0.0,0.0,0,0,0.0
648,0,,,,-0.02,0.01,1.0,0,-0,-0,0.02,,,,,,,,,,
653,0,2.58,2.54,,-0.02,0.01,1.0,0,-0,-0,0.02,,,,,,,,,,
658,0,,,,-0.02,0.01,1.0,0,-0,-0,0.02,,,,,,,,,,
663,0,2.58,2.54,,-0.02,0.01,1.0,0,-0,-0,0.02,,,0,,,,,,,
668,0,,,,-0.02,0.01,1.0,0,-0,-0,0.02,,,,,,,,,,
673,0,2.57,2.54,,-0.02,0.01,1.0,0,-0,-0,0.02,,,,,,,,,,
678,0,,,,-0.02,0.01,1.0,0,-0,-0,0.02,,,,,,,,,,
683,0,2.59,2.54,,-0.02,0.01,1.0,0,-0,-0,0.02,0,0,0,,,,,,,
688,0,,,,-0.02,0.01,1.0,0,-0,-0,0.02,,,,,,,,,,
693,0,2.58,2.55,,-0.02,0.01,1.0,0,-0,-0,0.02,,,,,,,,,,
698,0,,,,-0.02,0.01,1.0,0,-0,-0,0.02,,,,,,,,,,
703,0,2.54,2.51,,-0.02,0.01,1.0,0,-0,-0,0.02,,,0,,,,,,,
708,0,,,,-0.02,0.01,1.0,0,-0,-0,0.02,,,,,,,,,,
713,0,2.58,2.55,,-0.02,0.01,1.0,0,-0,-0,0.02,,,,,,,,,,
718,0,,,,-0.02,0.01,1.0,0,-0,-0,0.02,,,,,,,,,,
723,0,2.54,2.51,,-0.02,0.01,1.0,0,-0,-0,0.02,0,0,0,,,,,,,
728,0,,,,-0.02,0.01,1.0,0,-0,-0,0.02,,,,,,,,,,
733,0,2.58,2.55,,-0.02,0.01,1.0,0,-0,-0,0.02,,,,,,,,,,
738,0,,,,-0.01,0.01,1.0,0,-0,-0,0.02,,,,,,,,,,
743,0,2.54,2.51,,-0.01,0.01,1.0,0,-0,-0,0.02,,,0,0.0,0.0,0.0,0.0,0,0,0.0
748,0,,,,-0.01,0.01,1.0,0,-0,-0,0.02,,,,,,,,,,
753,0,2.58,2.55,,-0.01,0.01,1.0,0,-0,-0,0.02,,,,,,,,,,
758,0,,,,-0.01,0.01,1.0,0,-0,-0,0.02,,,,,,,,,,
763,0,2.58,2.55,,-0.01,0.01,1.0,0,-0,-0,0.02,0,0,0,,,,,,,
768,0,,,,-0.01,0.01,1.0,0,-0,-0,0.01,,,,,,,,,,
773,0,2.55,2.51,,-0.01,0.01,1.0,0,-0,-0,0.01,,,,,,,,,,
778,0,,,,-0.01,0.01,1.0,0,-0,-0,0.01,,,,,,,,,,
783,0,2.58,2.55,,-0.01,0.01,1.0,0,-0,-0,0.01,,,0,,,,,,,
788,0,,,,-0.01,0.01,1.0,0,-0,-0,0.01,,,,,,,,,,
793,0,2.56,2.53,,-0.01,0.01,1.0,0,-0,-0,0.01,,,,,,,,,,
798,0,,,,-0.01,0.01,1.0,0,-0,-0,0.01,,,,,,,,,,
803,0,2.58,2.55,,-0.01,0.01,1.0,0,-0,-0,0.01,0,0,0,,,,,,,
808,0,,,,-0.01,0.01,1.0,0,-0,-0,0.02,,,,,,,,,,
813,0,2.55,2.51,,-0.01,0.01,1.0,0,-0,-0,0.02,,,,,,,,,,
818,0,,,,-0.01,0.01,1.0,0,-0,-0,0.02,,,,,,,,,,
823,0,2.58,2.55,,-0.01,0.01,1.0,0,-0,-0,0.02,,,0,,,,,,,
828,0,,,,-0.01,0.01,1.0,0,-0,-0,0.02,,,,,,,,,,
833,0,2.57,2.54,,-0.01,0.01,1.0,0,-0,-0,0.02,,,,,,,,,,
838,0,,,,-0.01,0.01,1.0,0,-0,-0,0.02,,,,,,,,,,
843,0,2.58,2.55,,-0.01,0.01,1.0,0,-0,-0,0.02,0,0,0,0.0,0.0,0.0,0.0,0,0,0.0
848,0,,,,-0.01,0.01,1.0,0,-0,-0,0.02,,,,,,,,,,
853,0,2.58,2.54,,-0.01,0.01,1.0,0,-0,-0,0.02,,,,,,,,,,
858,0,,,,-0.01,0.01,1.0,0,-0,-0,0.02,,,,,,,,,,
863,0,2.54,2.51,,-0.01,0.01,1.0,0,-0,-0,0.02,,,0,,,,,,,
868,0,,,,-0.02,0.01,1.0,0,-0,-0,0.02,,,,,,,,,,
873,0,2.58,2.55,,-0.02,0.01,1.0,0,-0,-0,0.02,,,,,,,,,,
878,0,,,,-0.02,0.01,1.0,0,-0,-0,0.02,,,,,,,,,,
883,0,2.58,2.55,,-0.02,0.01,1.0,0,-0,-0,0.02,0,0,0,,,,,,,
888,0,,,,-0.02,0.01,1.0,0,-0,-0,0.02,,,,,,,,,,
893,0,2.58,2.55,,-0.02,0.01,1.0,0,-0,-0,0.02,,,,,,,,,,
898,0,,,,-0.02,0.01,1.0,0,-0,-0,0.02,,,,,,,,,,
903,0,2.58,2.54,,-0.02,0.01,1.0,0,-0,-0,0.02,,,0,,,,,,,
908,0,,,,-0.02,0.01,1.0,0,-0,-0,0.02,,,,,,,,,,
913,0,2.58,2.54,,-0.02,0.01,1.0,0,-0,-0,0.02,,,,,,,,,,
918,0,,,,-0.02,0.01,1.0,0,-0,-0,0.02,,,,,,,,,,
923,0,2.58,2.54,,-0.02,0.01,1.0,0,-0,-0,0.02,0,0,0,,,,,,,
928,0,,,,-0.02,0.01,1.0,0,-0,-0,0.02,,,,,,,,,,
933,0,2.58,2.55,,-0.02,0.01,1.0,0,-0,-0,0.02,,,,,,,,,,
938,0,,,,-0.02,0.01,1.0,0,-0,-0,0.02,,,,,,,,,,
943,0,2.59,2.55,,-0.02,0.01,1.0,0,-0,-0,0.02,,,0,0.0,0.0,0.0,0.0,0,0,0.0
948,0,,,,-0.02,0.01,1.0,0,-0,-0,0.02,,,,,,,,,,
953,0,2.59,2.55,,-0.02,0.01,1.0,0,-0,-0,0.02,,,,,,,,,,
958,0,,,,-0.02,0.01,1.0,0,-0,-0,0.02,,,,,,,,,,
963,0,2.58,2.55,,-0.02,0.01,1.0,0,-0,-0,0.02,0,0,0,,,,,,,
968,0,,,,-0.02,0.01,1.0,0,-0,-0,0.02,,,,,,,,,,
973,0,2.58,2.55,,-0.02,0.01,1.0,0,-0,-0,0.02,,,,,,,,,,
978,0,,,,-0.02,0.01,1.0,0,-0,-0,0.02,,,,,,,,,,
983,0,2.58,2.54,,-0.02,0.01,1.0,0,-0,-0,0.02,,,0,,,,,,,
988,0,,,,-0.02,0.01,1.0,0,-0,-0,0.02,,,,,,,,,,
993,0,2.55,2.51,,-0.02,0.01,1.0,0,-0,-0,0.02,,,,,,,,,,
998,0,,,,-0.02,0.01,1.0,0,-0,-0,0.02,,,,,,,,,,
1003,0,2.58,2.55,,-0.02,0.01,1.0,0,-0,-0,0.02,0,0,0,,,,,,,
1008,0,,,,-0.02,0.01,1.0,0,-0,-0,0.02,,,,,,,,,,
1013,0,2.58,2.54,,-0.02,0.01,1.0,0,-0,-0,0.02,,,,,,,,,,
1018,0,,,,-0.02,0.01,1.0,0,-0,-0,0.02,,,,,,,,,,
1023,0,2.58,2.54,,-0.02,0.01,1.0,0,-0,-0,0.02,,,0,,,,,,,
1028,0,,,,-0.01,0.01,1.0,0,-0,-0,0.02,,,,,,,,,,
1033,0,2.58,2.55,,-0.01,0.01,1.0,0,-0,-0,0.02,,,,,,,,,,
1038,0,,,,-0.01,0.01,1.0,0,-0,-0,0.02,,,,,,,,,,
1043,0,2.56,2.53,13.64,-0.01,0.01,1.0,0,-0,-0,0.02,0,0,0,0.0,0.0,0.0,0.0,0,0,0.0
1048,0,,,,-0.01,0.01,1.0,0,-0,-0,0.02,,,,,,,,,,
1053,0,2.55,2.52,,-0.02,0.01,1.0,0,-0,-0,0.02,,,,,,,,,,
1058,0,,,,-0.01,0.01,1.0,0,-0,-0,0.02,,,,,,,,,,
1063,0,2.58,2.55,,-0.01,0.01,1.0,0,-0,-0,0.02,,,0,,,,,,,
1068,0,,,,-0.02,0.01,1.0,0,-0,-0,0.02,,,,,,,,,,
1073,0,2.58,2.55,,-0.02,0.01,1.0,0,-0,-0,0.02,,,,,,,,,,
1078,0,,,,-0.02,0.01,1.0,0,-0,-0,0.02,,,,,,,,,,
1083,0,2.57,2.54,,-0.02,0.01,1.0,0,-0,-0,0.02,0,0,0,,,,,,,
1088,0,,,,-0.02,0.01,1.0,0,-0,-0,0.02,,,,,,,,,,
1093,0,2.55,2.51,,-0.02,0.01,1.0,0,-0,-0,0.02,,,,,,,,,,
1098,0,,,,-0.02,0.01,1.0,0,-0,-0,0.02,,,,,,,,,,
1103,0,2.58,2.55,,-0.02,0.01,1.0,0,-0,-0,0.02,,,0,,,,,,,
1108,0,,,,-0.02,0.01,1.0,0,-0,-0,0.02,,,,,,,,,,
1113,0,2.54,2.51,,-0.02,0.01,1.0,0,-0,-0,0.02,,,,,,,,,,
1118,0,,,,-0.02,0.01,1.0,0,-0,-0,0.02,,,,,,,,,,
1123,0,2.57,2.53,,-0.02,0.01,1.0,0,-0,-0,0.02,0,0,0,,,,,,,
1128,0,,,,-0.02,0.01,1.0,0,-0,-0,0.02,,,,,,,,,,
1133,0,2.58,2.55,,-0.02,0.01,1.0,0,-0,-0,0.02,,,,,,,,,,
1138,0,,,,-0.02,0.01,1.0,0,-0,-0,0.02,,,,,,,,,,
1143,0,2.54,2.51,,-0.02,0.01,1.0,0,-0,-0,0.02,,,0,0.0,0.0,0.0,0.0,0,0,0.0
1148,0,,,,-0.02,0.01,1.0,0,-0,-0,0.02,,,,,,,,,,
1153,0,2.58,2.55,,-0.02,0.01,1.0,0,-0,-0,0.02,,,,,,,,,,
1158,0,,,,-0.02,0.01,1.0,0,-0,-0,0.02,,,,,,,,,,
1163,0,2.58,2.55,,-0.02,0.01,1.0,0,-0,-0,0.02,0,0,0,,,,,,,
1168,0,,,,-0.02,0.01,1.0,0,-0,-0,0.02,,,,,,,,,,
1173,0,2.56,2.53,,-0.02,0.01,1.0,0,-0,-0,0.02,,,,,,,,,,
1178,0,,,,-0.02,0.01,1.0,0,-0,-0,0.02,,,,,,,,,,
1183,0,2.58,2.55,,-0.02,0.01,1.0,0,-0,-0,0.02,,,0,,,,,,,
1188,0,,,,-0.02,0.01,1.0,0,-0,-0,0.02,,,,,,,,,,
1193,0,2.57,2.54,,-0.02,0.01,1.0,0,-0,-0,0.02,,,,,,,,,,
1198,0,,,,-0.02,0.01,1.0,0,-0,-0,0.02,,,,,,,,,,
1203,0,2.58,2.55,,-0.02,0.01,1.0,0,-0,-0,0.02,0,0,0,,,,,,,
1208,0,,,,-0.02,0.01,1.0,0,-0,-0,0.02,,,,,,,,,,
1213,0,2.58,2.54,,-0.02,0.01,1.0,0,-0,-0,0.02,,,,,,,,,,
1218,0,,,,-0.02,0.01,1.0,0,-0,-0,0.02,,,,,,,,,,
1223,0,2.58,2.54,,-0.02,0.01,1.0,0,-0,-0,0.02,,,0,,,,,,,
1228,0,,,,-0.02,0.01,1.0,0,-0,-0,0.02,,,,,,,,,,
1233,0,2.56,2.53,,-0.02,0.01,1.0,0,-0,-0,0.02,,,,,,,,,,
1238,0,,,,-0.02,0.01,1.0,0,-0,-0,0.02,,,,,,,,,,
1243,0,2.58,2.55,,-0.02,0.01,1.0,0,-0,-0,0.02,0,0,0,0.0,0.0,0.0,0.0,0,0,0.0
1248,0,,,,-0.02,0.01,1.0,0,-0,-0,0.02,,,,,,,,,,
1253,0,2.56,2.53,,-0.02,0.01,1.0,0,-0,-0,0.02,,,,,,,,,,
1258,0,,,,-0.01,0.01,1.0,0,-0,-0,0.02,,,,,,,,,,
1263,0,2.56,2.52,,-0.01,0.01,1.0,0,-0,-0,0.02,,,0,,,,,,,
1268,0,,,,-0.01,0.01,1.0,0,-0,-0,0.02,,,,,,,,,,
1273,0,2.54,2.51,,-0.01,0.01,1.0,0,-0,-0,0.02,,,,,,,,,,
1278,0,,,,-0.01,0.01,1.0,0,-0,-0,0.02,,,,,,,,,,
1283,0,2.59,2.51,,-0.01,0.01,1.0,0,-0,-0,0.02,0,0,0,,,,,,,
1288,0,,,,-0.01,0.01,1.0,0,-0,-0,0.02,,,,,,,,,,
1293,0,2.56,2.53,,-0.01,0.01,1.0,0,-0,-0,0.01,,,,,,,,,,
1298,0,,,,-0.01,0.01,1.0,0,-0,-0,0.01,,,,,,,,,,
1303,0,2.56,2.53,,-0.01,0.01,1.0,0,-0,-0,0.02,,,0,,,,,,,
1308,0,,,,-0.01,0.01,1.0,0,-0,-0,0.02,,,,,,,,,,
1313,0,2.58,2.55,,-0.01,0.01,1.0,0,-0,-0,0.02,,,,,,,,,,
1318,0,,,,-0.01,0.01,1.0,0,-0,-0,0.02,,,,,,,,,,
1323,0,2.58,2.55,,-0.01,0.01,1.0,0,-0,-0,0.02,0,0,0,,,,,,,
1328,0,,,,-0.01,0.01,1.0,0,-0,-0,0.02,,,,,,,,,,
1333,0,2.57,2.54,,-0.01,0.01,1.0,0,-0,-0,0.02,,,,,,,,,,
1338,0,,,,-0.02,0.01,1.0,0,-0,-0,0.02,,,,,,,,,,
1343,0,2.56,2.53,,-0.02,0.01,1.0,0,-0,-0,0.02,,,0,0.0,0.0,0.0,0.0,0,0,0.0
1348,0,,,,-0.02,0.01,1.0,0,-0,-0,0.02,,,,,,,,,,
1353,0,2.58,2.54,,-0.02,0.01,1.0,0,-0,-0,0.02,,,,,,,,,,
1358,0,,,,-0.01,0.01,1.0,0,-0,-0,0.02,,,,,,,,,,
1363,0,2.58,2.55,,-0.01,0.01,1.0,0,-0,-0,0.02,0,0,0,,,,,,,
1368,0,,,,-0.02,0.01,1.0,0,-0,-0,0.02,,,,,,,,,,
1373,0,2.58,2.55,,-0.02,0.01,1.0,0,-0,-0,0.02,,,,,,,,,,
1378,0,,,,-0.02,0.01,1.0,0,-0,-0,0.02,,,,,,,,,,
1383,0,2.58,2.55,,-0.02,0.01,1.0,0,-0,-0,0.02,,,0,,,,,,,
1388,0,,,,-0.02,0.01,1.0,0,-0,-0,0.02,,,,,,,,,,
1393,0,2.58,2.54,,-0.02,0.01,1.0,0,-0,-0,0.02,,,,,,,,,,
1398,0,,,,-0.02,0.01,1.0,0,-0,-0,0.02,,,,,,,,,,
1403,0,2.58,2.55,,-0.02,0.01,1.0,0,-0,-0,0.02,0,0,0,,,,,,,
1408,0,,,,-0.02,0.01,1.0,0,-0,-0,0.02,,,,,,,,,,
1413,0,2.58,2.55,,-0.02,0.01,1.0,0,-0,-0,0.02,,,,,,,,,,
1418,0,,,,-0.02,0.01,1.0,0,-0,-0,0.02,,,,,,,,,,
1423,0,2.58,2.55,,-0.02,0.01,1.0,0,-0,-0,0.02,,,0,,,,,,,
1428,0,,,,-0.02,0.01,1.0,0,-0,-0,0.02,,,,,,,,,,
1433,0,2.57,2.54,,-0.02,0.01,1.0,0,-0,-0,0.02,,,,,,,,,,
1438,0,,,,-0.02,0.01,1.0,0,-0,-0,0.02,,,,,,,,,,
1443,0,2.58,2.55,,-0.02,0.01,1.0,0,-0,-0,0.02,0,0,0,0.0,0.0,0.0,0.0,0,0,0.0
1448,0,,,,-0.02,0.01,1.0,0,-0,-0,0.02,,,,,,,,,,
1453,0,2.58,2.55,,-0.02,0.01,1.0,0,-0,-0,0.02,,,,,,,,,,
1458,0,,,,-0.01,0.01,1.0,0,-0,-0,0.02,,,,,,,,,,
1463,0,2.58,2.55,,-0.01,0.01,1.0,0,-0,-0,0.02,,,0,,,,,,,
1468,0,,,,-0.01,0.01,1.0,0,-0,-0,0.02,,,,,,,,,,
1473,0,2.58,2.55,,-0.02,0.01,1.0,0,-0,-0,0.02,,,,,,,,,,
1478,0,,,,-0.02,0.01,1.0,0,-0,-0,0.02,,,,,,,,,,
1483,0,2.56,2.53,,-0.02,0.01,1.0,0,-0,-0,0.02,0,0,0,,,,,,,
1488,0,,,,-0.02,0.01,1.0,0,-0,-0,0.02,,,,,,,,,,
1493,0,2.58,2.55,,-0.02,0.01,1.0,0,-0,-0,0.02,,,,,,,,,,
1498,0,,,,-0.02,0.01,1.0,0,-0,-0,0.02,,,,,,,,,,
1503,0,2.55,2.52,,-0.02,0.01,1.0,0,-0,-0,0.02,,,0,,,,,,,
1508,0,,,,-0.02,0.01,1.0,0,-0,-0,0.02,,,,,,,,,,
1513,0,2.58,2.55,,-0.02,0.01,1.0,0,-0,-0,0.02,,,,,,,,,,
1518,0,,,,-0.02,0.01,1.0,0,-0,-0,0.02,,,,,,,,,,
1523,0,2.56,2.52,,-0.02,0.01,1.0,0,-0,-0,0.02,0,0,0,,,,,,,
1528,0,,,,-0.02,0.01,1.0,0,-0,-0,0.02,,,,,,,,,,
1533,0,2.57,2.54,,-0.02,0.01,1.0,0,-0,-0,0.02,,,,,,,,,,
1538,0,,,,-0.02,0.01,1.0,0,-0,-0,0.02,,,,,,,,,,
1543,0,2.58,2.55,,-0.02,0.01,1.0,0,-0,-0,0.02,,,0,0.0,0.0,0.0,0.0,0,0,0.0
1548,0,,,,-0.02,0.01,1.0,0,-0,-0,0.02,,,,,,,,,,
1553,0,2.54,2.53,,-0.02,0.01,1.0,0,-0,-0,0.02,,,,,,,,,,
1558,0,,,,-0.02,0.01,1.0,0,-0,-0,0.02,,,,,,,,,,
1563,0,2.58,2.55,,-0.02,0.01,1.0,0,-0,-0,0.02,0,0,0,,,,,,,
1568,0,,,,-0.02,0.01,1.0,0,-0,-0,0.02,,,,,,,,,,
1573,0,2.54,2.51,,-0.02,0.01,1.0,0,-0,-0,0.02,,,,,,,,,,
1578,0,,,,-0.02,0.01,1.0,0,-0,-0,0.02,,,,,,,,,,
1583,0,2.56,2.53,,-0.02,0.01,1.0,0,-0,-0,0.02,,,0,,,,,,,
1588,0,,,,-0.02,0.01,1.0,0,-0,-0,0.02,,,,,,,,,,
1593,0,2.58,2.55,,-0.02,0.01,1.0,0,-0,-0,0.02,,,,,,,,,,
1598,0,,,,-0.02,0.01,1.0,0,-0,-0,0.02,,,,,,,,,,
1603,0,2.55,2.51,,-0.02,0.01,1.0,0,-0,-0,0.02,0,0,0,,,,,,,
1608,0,,,,-0.02,0.01,1.0,0,-0,-0,0.02,,,,,,,,,,
1613,0,2.59,2.55,,-0.02,0.01,1.0,0,-0,-0,0.02,,,,,,,,,,
1618,0,,,,-0.02,0.01,1.0,0,-0,-0,0.02,,,,,,,,,,
1623,0,2.58,2.55,,-0.02,0.01,1.0,0,-0,-0,0.02,,,0,,,,,,,
1628,0,,,,-0.02,0.01,1.0,0,-0,-0,0.02,,,,,,,,,,
1633,0,2.54,2.51,,-0.02,0.01,1.0,0,-0,-0,0.02,,,,,,,,,,
1638,0,,,,-0.02,0.01,1.0,0,-0,-0,0.02,,,,,,,,,,
1643,0,2.58,2.55,,-0.02,0.01,1.0,0,-0,-0,0.02,0,0,0,0.0,0.0,0.0,0.0,0,0,0.0
1648,0,,,,-0.02,0.01,1.0,0,-0,-0,0.02,,,,,,,,,,
1653,0,2.58,2.55,,-0.02,0.01,1.0,0,-0,-0,0.02,,,,,,,,,,
1658,0,,,,-0.01,0.01,1.0,0,-0,-0,0.02,,,,,,,,,,
1663,0,2.56,2.53,,-0.01,0.01,1.0,0,-0,-0,0.02,,,0,,,,,,,
1668,0,,,,-0.01,0.01,1.0,0,-0,-0,0.02,,,,,,,,,,
1673,0,2.57,2.53,,-0.01,0.01,1.0,0,-0,-0,0.02,,,,,,,,,,
1678,0,,,,-0.01,0.01,1.0,0,-0,-0,0.02,,,,,,,,,,
1683,0,2.58,2.55,,-0.01,0.01,1.0,0,-0,-0,0.02,0,0,0,,,,,,,
1688,0,,,,-0.01,0.01,1.0,0,-0,-0,0.02,,,,,,,,,,
1693,0,2.58,2.54,,-0.01,0.01,1.0,0,-0,-0,0.02,,,,,,,,,,
1698,0,,,,-0.01,0.01,1.0,0,-0,-0,0.02,,,,,,,,,,
1703,0,2.57,2.53,,-0.01,0.01,1.0,0,-0,-0,0.02,,,0,,,,,,,
1708,0,,,,-0.01,0.01,1.0,0,-0,-0,0.02,,,,,,,,,,
1713,0,2.58,2.55,,-0.01,0.01,1.0,0,-0,-0,0.02,,,,,,,,,,
1718,0,,,,-0.01,0.01,1.0,0,-0,-0,0.02,,,,,,,,,,
1723,0,2.54,2.51,,-0.01,0.01,1.0,0,-0,-0,0.02,0,0,0,,,,,,,
1728,0,,,,-0.01,0.01,1.0,0,-0,-0,0.02,,,,,,,,,,
1733,0,2.58,2.55,,-0.01,0.01,1.0,0,-0,-0,0.02,,,,,,,,,,
1738,0,,,,-0.01,0.01,1.0,0,-0,-0,0.02,,,,,,,,,,
1743,0,2.54,2.51,,-0.01,0.01,1.0,0,-0,-0,0.02,,,0,0.0,0.0,0.0,0.0,0,0,0.0
1748,0,,,,-0.01,0.01,1.0,0,-0,-0,0.02,,,,,,,,,,
1753,0,2.58,2.55,,-0.01,0.01,1.0,0,-0,-0,0.02,,,,,,,,,,
1758,0,,,,-0.01,0.01,1.0,0,-0,-0,0.02,,,,,,,,,,
1763,0,2.54,2.51,,-0.01,0.01,1.0,0,-0,-0,0.02,0,0,0,,,,,,,
1768,0,,,,-0.01,0.01,1.0,0,-0,-0,0.02,,,,,,,,,,
1773,0,2.58,2.55,,-0.01,0.01,1.0,0,-0,-0,0.02,,,,,,,,,,
1778,0,,,,-0.01,0.01,1.0,0,-0,-0,0.02,,,,,,,,,,
1783,0,2.57,2.53,,-0.01,0.01,1.0,0,-0,-0,0.02,,,0,,,,,,,
1788,0,,,,-0.01,0.01,1.0,0,-0,-0,0.02,,,,,,,,,,
1793,0,2.57,2.53,,-0.01,0.01,1.0,0,-0,-0,0.02,,,,,,,,,,
1798,0,,,,-0.01,0.01,1.0,0,-0,-0,0.02,,,,,,,,,,
1803,0,2.57,2.53,,-0.01,0.01,1.0,0,-0,-0,0.02,0,0,0,,,,,,,
1808,0,,,,-0.01,0.01,1.0,0,-0,-0,0.02,,,,,,,,,,
1813,0,2.55,2.51,,-0.01,0.01,1.0,0,-0,-0,0.02,,,,,,,,,,
1818,0,,,,-0.02,0.01,1.0,0,-0,-0,0.02,,,,,,,,,,
1823,0,2.56,2.51,,-0.01,0.01,1.0,0,-0,-0,0.02,,,0,,,,,,,
1828,0,,,,-0.02,0.01,1.0,0,-0,-0,0.02,,,,,,,,,,
1833,0,2.55,2.52,,-0.02,0.01,1.0,0,-0,-0,0.02,,,,,,,,,,
1838,0,,,,-0.02,0.01,1.0,0,-0,-0,0.02,,,,,,,,,,
1843,0,2.56,2.53,,-0.02,0.01,1.0,0,-0,-0,0.02,0,0,0,0.0,0.0,0.0,0.0,0,0,0.0
1848,0,,,,-0.02,0.01,1.0,0,-0,-0,0.02,,,,,,,,,,
1853,0,2.55,2.52,,-0.02,0.01,1.0,0,-0,-0,0.02,,,,,,,,,,
1858,0,,,,-0.02,0.01,1.0,0,-0,-0,0.02,,,,,,,,,,
1863,0,2.57,2.54,,-0.02,0.01,1.0,0,-0,-0,0.02,,,0,,,,,,,
1868,0,,,,-0.02,0.01,1.02,0,0,-0,0.03,,,,,,,,,,
1873,0,2.58,2.55,,-0.02,0.02,1.03,0,0,-0,0.03,,,,,,,,,,
1878,0,,,,-0.02,0.02,1.03,0,0,-0,0.03,,,,,,,,,,
1883,0,2.58,2.55,,-0.03,0.01,1.04,0,0,-0,0.03,0,0,0,,,,,,,
1888,0,,,,-0.03,0.02,1.04,0,0,-0,0.03,,,,,,,,,,
1893,0,2.57,2.55,,-0.03,0.02,1.03,0,0,-0,0.03,,,,,,,,,,
1898,0,,,,-0.03,0.02,1.03,0,0,-0,0.03,,,,,,,,,,
1903,0,2.58,2.54,,-0.02,0.02,1.03,0,0,-0,0.03,,,0,,,,,,,
1908,0,,,,-0.02,0.02,1.03,0,0,-0,0.03,,,,,,,,,,
1913,0,2.58,2.54,,-0.02,0.02,1.02,0,0,-0,0.03,,,,,,,,,,
1918,0,,,,-0.02,0.02,1.02,0,0,-0,0.03,,,,,,,,,,
1923,0,2.58,2.54,,-0.02,0.02,1.02,0,0,-0,0.03,0,0,0,,,,,,,
1928,0,,,,-0.02,0.02,1.02,0,0,-0,0.03,,,,,,,,,,
1933,0,2.57,2.54,,-0.02,0.01,1.01,0,0,-0,0.03,,,,,,,,,,
1938,0,,,,-0.02,0.01,1.01,0,0,-0,0.03,,,,,,,,,,
1943,0,2.55,2.52,,-0.02,0.01,1.01,0,0,-0,0.03,,,0,0.0,0.0,0.0,0.0,0,0,0.0
1948,0,,,,-0.02,0.01,1.01,0,0,-0,0.03,,,,,,,,,,
1953,0,2.57,2.54,,-0.02,0.01,1.01,0,0,-0,0.03,,,,,,,,,,
1958,0,,,,-0.02,0.01,1.01,0,0,-0,0.03,,,,,,,,,,
1963,0,2.58,2.55,,-0.02,0.01,1.01,0,0,-0,0.02,0,0,0,,,,,,,
1968,0,,,,-0.02,0.01,1.01,0,0,-0,0.02,,,,,,,,,,
1973,0,2.54,2.51,,-0.02,0.01,1.01,0,0,-0,0.02,,,,,,,,,,
1978,0,,,,-0.02,0.01,1.01,0,0,-0,0.02,,,,,,,,,,
1983,0,2.58,2.55,,-0.02,0.01,1.01,0,0,-0,0.02,,,0,,,,,,,
1988,0,,,,-0.02,0.01,1.01,0,0,-0,0.02,,,,,,,,,,
1993,0,2.6,2.56,,-0.02,0.01,1.01,0,0,-0,0.02,,,,,,,,,,
1998,0,,,,-0.02,0.01,1.01,0,0,-0,0.02,,,,,,,,,,
2003,0,2.55,2.51,,-0.02,0.01,1.01,0,0,-0,0.02,0,0,0,,,,,,,
2008,0,,,,-0.02,0.01,1.01,0,0,-0,0.02,,,,,,,,,,
2013,0,2.55,2.51,,-0.02,0.01,1.01,0,-0,-0,0.02,,,,,,,,,,
2018,0,,,,-0.02,0.01,1.01,0,0,-0,0.02,,,,,,,,,,
2023,0,2.55,2.54,,-0.01,0.01,1.01,0,0,-0,0.02,,,0,,,,,,,
2028,0,,,,-0.01,0.01,1.0,0,0,-0,0.02,,,,,,,,,,
2033,0,2.59,2.55,,-0.01,0.0,1.0,0,-0,-0,0.02,,,,,,,,,,
2038,0,,,,-0.01,0.01,1.0,0,-0,-0,0.02,,,,,,,,,,
2043,0,2.54,2.52,13.66,-0.01,0.01,1.0,0,-0,-0,0.02,0,0,0,0.0,0.0,0.0,0.0,0,0,0.0
2048,0,,,,-0.01,0.01,1.0,0,-0,-0,0.01,,,,,,,,,,
2053,0,2.58,2.55,,-0.01,0.01,1.0,0,-0,-0,0.01,,,,,,,,,,
2058,0,,,,-0.01,0.01,1.0,0,-0,-0,0.01,,,,,,,,,,
2063,0,2.56,2.53,,-0.01,0.01,1.0,0,-0,-0,0.02,,,0,,,,,,,
2068,0,,,,-0.01,0.01,1.0,0,-0,-0,0.02,,,,,,,,,,
2073,0,2.57,2.54,,-0.01,0.01,1.0,0,-0,-0,0.02,,,,,,,,,,
2078,0,,,,-0.01,0.01,1.0,0,-0,-0,0.02,,,,,,,,,,
2083,0,2.54,2.51,,-0.01,0.01,1.0,0,-0,-0,0.02,0,0,0,,,,,,,
2088,0,,,,-0.01,0.01,1.0,0,-0,-0,0.02,,,,,,,,,,
2093,0,2.54,2.52,,-0.01,0.01,1.0,0,-0,-0,0.02,,,,,,,,,,
2098,0,,,,-0.01,0.01,1.0,0,-0,-0,0.02,,,,,,,,,,
2103,0,2.54,2.51,,-0.01,0.01,1.0,0,-0,-0,0.02,,,0,,,,,,,
2108,0,,,,-0.01,0.01,1.0,0,-0,-0,0.02,,,,,,,,,,
2113,0,2.54,2.51,,-0.01,0.01,1.0,0,0,-0,0.02,,,,,,,,,,
2118,0,,,,-0.01,0.01,1.0,0,0,-0,0.02,,,,,,,,,,
2123,0,2.56,2.52,,-0.01,0.01,1.0,0,0,-0,0.02,0,0,0,,,,,,,
2128,0,,,,-0.01,0.01,1.0,0,0,-0,0.02,,,,,,,,,,
2133,0,2.57,2.56,,-0.01,0.01,1.0,0,0,-0,0.02,,,,,,,,,,
2138,0,,,,-0.01,0.01,1.0,0,-0,-0,0.02,,,,,,,,,,
2143,0,2.56,2.52,,-0.01,0.01,1.0,0,0,-0,0.02,,,0,0.0,0.0,0.0,0.0,0,0,0.0
2148,0,,,,-0.01,0.01,1.0,0,0,-0,0.02,,,,,,,,,,
2153,0,2.58,2.55,,-0.01,0.01,1.0,0,0,-0,0.02,,,,,,,,,,
2158,0,,,,-0.02,0.01,1.0,0,0,-0,0.02,,,,,,,,,,
2163,0,2.54,2.51,,-0.02,0.01,1.0,0,0,-0,0.02,0,0,0,,,,,,,
2168,0,,,,-0.02,0.01,1.0,0,-0,-0,0.02,,,,,,,,,,
2173,0,2.58,2.54,,-0.02,0.01,1.0,0,-0,-0,0.02,,,,,,,,,,
2178,0,,,,-0.02,0.01,1.0,0,-0,-0,0.02,,,,,,,,,,
2183,0,2.54,2.51,,-0.02,0.01,1.0,0,-0,-0,0.02,,,0,,,,,,,
2188,0,,,,-0.02,0.01,1.0,0,-0,-0,0.02,,,,,,,,,,
2193,0,2.59,2.55,,-0.02,0.01,1.0,0,-0,-0,0.02,,,,,,,,,,
2198,0,,,,-0.02,0.01,1.0,0,-0,-0,0.02,,,,,,,,,,
2203,0,2.54,2.51,,-0.02,0.01,1.0,0,-0,-0,0.02,0,0,0,,,,,,,
2208,0,,,,-0.02,0.01,1.0,0,-0,-0,0.02,,,,,,,,,,
2213,0,2.59,2.55,,-0.02,0.01,1.0,0,-0,-0,0.02,,,,,,,,,,
2218,0,,,,-0.02,0.01,1.0,0,-0,-0,0.02,,,,,,,,,,
2223,0,2.54,2.54,,-0.02,0.01,1.0,0,-0,-0,0.02,,,0,,,,,,,
2228,0,,,,-0.02,0.01,1.0,0,-0,-0,0.02,,,,,,,,,,
2233,0,2.56,2.52,,-0.02,0.01,1.0,0,-0,-0,0.02,,,,,,,,,,
2238,0,,,,-0.02,0.01,1.0,0,-0,-0,0.02,,,,,,,,,,
2243,0,2.57,2.54,,-0.02,0.01,1.0,0,-0,-0,0.02,0,0,0,0.0,0.0,0.0,0.0,0,0,0.0
2248,0,,,,-0.02,0.01,1.0,0,-0,-0,0.02,,,,,,,,,,
2253,0,2.57,2.54,,-0.02,0.01,1.0,0,-0,-0,0.02,,,,,,,,,,
2258,0,,,,-0.02,0.01,1.0,0,-0,-0,0.02,,,,,,,,,,
2263,0,2.59,2.55,,-0.02,0.01,1.0,0,-0,-0,0.02,,,0,,,,,,,
2268,0,,,,-0.02,0.01,1.0,0,-0,-0,0.02,,,,,,,,,,
2273,0,2.55,2.51,,-0.02,0.01,1.0,0,-0,-0,0.02,,,,,,,,,,
2278,0,,,,-0.02,0.01,1.0,0,-0,-0,0.02,,,,,,,,,,
2283,0,2.57,2.54,,-0.02,0.01,1.0,0,-0,-0,0.02,0,0,0,,,,,,,
2288,0,,,,-0.02,0.01,1.0,0,-0,-0,0.02,,,,,,,,,,
2293,0,2.59,2.54,,-0.02,0.01,1.0,0,-0,-0,0.02,,,,,,,,,,
2298,0,,,,-0.02,0.01,1.0,0,-0,-0,0.02,,,,,,,,,,
2303,0,2.58,2.54,,-0.01,0.01,1.0,0,-0,-0,0.02,,,0,,,,,,,
2308,0,,,,-0.01,0.01,1.0,0,-0,-0,0.02,,,,,,,,,,
2313,0,2.56,2.53,,-0.01,0.01,1.0,0,-0,-0,0.02,,,,,,,,,,
2318,0,,,,-0.01,0.01,1.0,0,-0,-0,0.02,,,,,,,,,,
2323,0,2.58,2.55,,-0.01,0.01,1.0,0,-0,-0,0.02,0,0,0,,,,,,,
2328,0,,,,-0.01,0.01,1.0,0,-0,-0,0.02,,,,,,,,,,
2333,0,2.54,2.51,,-0.01,0.01,1.0,0,-0,-0,0.02,,,,,,,,,,
2338,0,,,,-0.01,0.01,1.0,0,-0,-0,0.01,,,,,,,,,,
2343,0,2.54,2.5,,-0.01,0.01,1.0,0,-0,-0,0.01,,,0,0.0,0.0,0.0,0.0,0,0,0.0
2348,0,,,,-0.01,0.01,1.0,0,-0,-0,0.01,,,,,,,,,,
2353,0,2.59,2.55,,-0.01,0.01,1.0,0,-0,-0,0.01,,,,,,,,,,
2358,0,,,,-0.01,0.01,1.0,0,-0,-0,0.01,,,,,,,,,,
2363,0,2.55,2.51,,-0.01,0.01,1.0,0,-0,-0,0.01,0,0,0,,,,,,,
2368,0,,,,-0.01,0.01,1.0,0,-0,-0,0.01,,,,,,,,,,
2373,0,2.58,2.54,,-0.01,0.01,1.0,0,-0,-0,0.01,,,,,,,,,,
2378,0,,,,-0.01,0.01,1.0,0,-0,-0,0.01,,,,,,,,,,
2383,0,2.54,2.5,,-0.01,0.01,1.0,0,-0,-0,0.01,,,0,,,,,,,
2388,0,,,,-0.01,0.01,1.0,0,-0,-0,0.01,,,,,,,,,,
2393,0,2.59,2.55,,-0.01,0.01,1.0,0,-0,-0,0.01,,,,,,,,,,
2398,0,,,,-0.01,0.01,1.0,0,-0,-0,0.01,,,,,,,,,,
2403,0,2.57,2.54,,-0.01,0.01,1.0,0,-0,-0,0.01,0,0,0,,,,,,,
2408,0,,,,-0.01,0.01,1.0,0,-0,-0,0.02,,,,,,,,,,
2413,0,2.54,2.51,,-0.01,0.01,1.0,0,-0,-0,0.02,,,,,,,,,,
2418,0,,,,-0.01,0.01,1.0,0,-0,-0,0.02,,,,,,,,,,
2423,0,2.58,2.55,,-0.01,0.01,1.0,0,-0,-0,0.02,,,0,,,,,,,
2428,0,,,,-0.01,0.01,1.0,0,-0,-0,0.02,,,,,,,,,,
2433,0,2.54,2.51,,-0.01,0.01,1.0,0,-0,-0,0.02,,,,,,,,,,
2438,0,,,,-0.01,0.01,1.0,0,-0,-0,0.02,,,,,,,,,,
2443,0,2.58,2.55,,-0.01,0.01,1.0,0,-0,-0,0.02,0,0,0,0.0,0.0,0.0,0.0,0,0,0.0
2448,0,,,,-0.01,0.01,1.0,0,-0,-0,0.02,,,,,,,,,,
2453,0,2.57,2.54,,-0.01,0.01,1.0,0,-0,-0,0.02,,,,,,,,,,
2458,0,,,,-0.01,0.01,1.0,0,-0,-0,0.02,,,,,,,,,,
2463,0,2.58,2.55,,-0.01,0.01,1.0,0,-0,-0,0.02,,,0,,,,,,,
2468,0,,,,-0.01,0.01,1.0,0,-0,-0,0.02,,,,,,,,,,
2473,0,2.58,2.55,,-0.01,0.01,1.0,0,-0,-0,0.02,,,,,,,,,,
2478,0,,,,-0.02,0.01,1.0,0,-0,-0,0.02,,,,,,,,,,
2483,0,2.56,2.52,,-0.02,0.01,1.0,0,-0,-0,0.02,0,0,0,,,,,,,
2488,0,,,,-0.02,0.01,1.0,0,-0,-0,0.02,,,,,,,,,,
2493,0,2.57,2.52,,-0.02,0.01,1.0,0,-0,-0,0.02,,,,,,,,,,
2498,0,,,,-0.02,0.01,1.0,0,-0,-0,0.02,,,,,,,,,,
2503,0,2.58,2.55,,-0.02,0.01,1.0,0,-0,-0,0.02,,,0,,,,,,,
2508,0,,,,-0.02,0.01,1.0,0,-0,-0,0.02,,,,,,,,,,
2513,0,2.58,2.55,,-0.02,0.01,1.0,0,-0,-0,0.02,,,,,,,,,,
2518,0,,,,-0.02,0.01,1.0,0,-0,-0,0.02,,,,,,,,,,
2523,0,2.58,2.55,,-0.02,0.01,1.0,0,-0,-0,0.02,0,0,0,,,,,,,
2528,0,,,,-0.02,0.01,1.0,0,-0,-0,0.02,,,,,,,,,,
2533,0,2.58,2.54,,-0.02,0.01,1.0,0,-0,-0,0.02,,,,,,,,,,
2538,0,,,,-0.02,0.01,1.0,0,-0,-0,0.02,,,,,,,,,,
2543,0,2.58,2.55,,-0.02,0.01,1.0,0,-0,-0,0.02,,,0,0.0,0.0,0.0,0.0,0,0,0.0
2548,0,,,,-0.02,0.01,1.0,0,-0,-0,0.02,,,,,,,,,,
2553,0,2.58,2.54,,-0.02,0.01,1.0,0,-0,-0,0.02,,,,,,,,,,
2558,0,,,,-0.02,0.01,1.0,0,-0,-0,0.02,,,,,,,,,,
2563,0,2.58,2.55,,-0.02,0.01,1.0,0,-0,-0,0.02,0,0,0,,,,,,,
2568,0,,,,-0.02,0.01,1.0,0,-0,-0,0.02,,,,,,,,,,
2573,0,2.57,2.54,,-0.02,0.01,1.0,0,-0,-0,0.02,,,,,,,,,,
2578,0,,,,-0.02,0.01,1.0,0,-0,-0,0.02,,,,,,,,,,
2583,0,2.55,2.52,,-0.02,0.01,1.0,0,-0,-0,0.02,,,0,,,,,,,
2588,0,,,,-0.02,0.01,1.0,0,-0,-0,0.02,,,,,,,,,,
2593,0,2.54,2.51,,-0.02,0.01,1.0,0,-0,-0,0.02,,,,,,,,,,
2598,0,,,,-0.02,0.01,1.0,0,-0,-0,0.02,,,,,,,,,,
2603,0,2.57,2.54,,-0.02,0.01,1.0,0,-0,-0,0.02,0,0,0,,,,,,,
2608,0,,,,-0.02,0.01,1.0,0,-0,-0,0.02,,,,,,,,,,
2613,0,2.57,2.54,,-0.02,0.01,1.0,0,-0,-0,0.02,,,,,,,,,,
2618,0,,,,-0.02,0.01,1.0,0,-0,-0,0.02,,,,,,,,,,
2623,0,2.58,2.55,,-0.02,0.01,1.0,0,-0,-0,0.02,,,0,,,,,,,
2628,0,,,,-0.02,0.01,1.0,0,-0,-0,0.02,,,,,,,,,,
2633,0,2.58,2.54,,-0.02,0.01,1.0,0,-0,-0,0.02,,,,,,,,,,
2638,0,,,,-0.02,0.01,1.0,0,-0,-0,0.02,,,,,,,,,,
2643,0,2.58,2.54,,-0.02,0.01,1.0,0,-0,-0,0.02,0,0,0,0.0,0.0,0.0,0.0,0,0,0.0
2648,0,,,,-0.02,0.01,1.0,0,-0,-0,0.02,,,,,,,,,,
2653,0,2.57,2.54,,-0.02,0.01,1.0,0,-0,-0,0.02,,,,,,,,,,
2658,0,,,,-0.02,0.01,1.0,0,-0,-0,0.02,,,,,,,,,,
2663,0,2.57,2.53,,-0.02,0.01,1.0,0,-0,-0,0.02,,,0,,,,,,,
2668,0,,,,-0.01,0.01,1.0,0,-0,-0,0.02,,,,,,,,,,
2673,0,2.57,2.54,,-0.01,0.01,1.0,0,-0,-0,0.02,,,,,,,,,,
2678,0,,,,-0.01,0.01,1.0,0,-0,-0,0.02,,,,,,,,,,
2683,0,2.55,2.52,,-0.01,0.01,1.0,0,-0,-0,0.02,0,0,0,,,,,,,
2688,0,,,,-0.01,0.01,1.0,0,-0,-0,0.02,,,,,,,,,,
2693,0,2.56,2.54,,-0.01,0.01,1.0,0,-0,-0,0.02,,,,,,,,,,
2698,0,,,,-0.01,0.01,1.0,0,-0,-0,0.01,,,,,,,,,,
2703,0,2.57,2.53,,-0.01,0.01,1.0,0,-0,-0,0.01,,,0,,,,,,,
2708,0,,,,-0.01,0.01,1.0,0,-0,-0,0.01,,,,,,,,,,
2713,0,2.54,2.51,,-0.01,0.01,1.0,0,-0,-0,0.01,,,,,,,,,,
2718,0,,,,-0.01,0.01,1.0,0,-0,-0,0.02,,,,,,,,,,
2723,0,2.54,2.51,,-0.01,0.01,1.0,0,-0,-0,0.02,0,0,0,,,,,,,
2728,0,,,,-0.01,0.01,1.0,0,-0,-0,0.02,,,,,,,,,,
2733,0,2.54,2.51,,-0.01,0.01,1.0,0,-0,-0,0.02,,,,,,,,,,
2738,0,,,,-0.01,0.01,1.0,0,-0,-0,0.02,,,,,,,,,,
2743,0,2.55,2.52,,-0.01,0.01,1.0,0,-0,-0,0.02,,,0,0.0,0.0,0.0,0.0,0,0,0.0
2748,0,,,,-0.01,0.01,1.0,0,-0,-0,0.02,,,,,,,,,,
2753,0,2.58,2.55,,-0.01,0.01,1.0,0,-0,-0,0.02,,,,,,,,,,
2758,0,,,,-0.01,0.01,1.0,0,-0,-0,0.02,,,,,,,,,,
2763,0,2.58,2.55,,-0.01,0.01,1.0,0,-0,-0,0.02,0,0,0,,,,,,,
2768,0,,,,-0.01,0.01,1.0,0,-0,-0,0.02,,,,,,,,,,
2773,0,2.57,2.53,,-0.01,0.01,1.0,0,-0,-0,0.02,,,,,,,,,,
2778,0,,,,-0.01,0.01,1.0,0,-0,-0,0.02,,,,,,,,,,
2783,0,2.54,2.51,,-0.01,0.01,1.0,0,-0,-0,0.02,,,0,,,,,,,
2788,0,,,,-0.01,0.01,1.0,0,-0,-0,0.02,,,,,,,,,,
2793,0,2.59,2.55,,-0.01,0.01,1.0,0,-0,-0,0.02,,,,,,,,,,
2798,0,,,,-0.01,0.01,1.0,0,0,-0,0.02,,,,,,,,,,
2803,0,2.58,2.55,,-0.01,0.01,1.0,0,-0,-0,0.02,0,0,0,,,,,,,
2808,0,,,,-0.01,0.01,1.0,0,0,-0,0.02,,,,,,,,,,
2813,0,2.55,2.51,,-0.01,0.01,1.0,0,-0,-0,0.02,,,,,,,,,,
2818,0,,,,-0.01,0.01,1.0,0,0,-0,0.02,,,,,,,,,,
2823,0,2.58,2.54,,-0.01,0.01,1.0,0,-0,-0,0.02,,,0,,,,,,,
2828,0,,,,-0.01,0.01,1.0,0,-0,-0,0.02,,,,,,,,,,
2833,0,2.58,2.53,,-0.01,0.01,1.0,0,-0,-0,0.02,,,,,,,,,,
2838,0,,,,-0.01,0.01,1.0,0,-0,-0,0.02,,,,,,,,,,
2843,0,2.57,2.54,,-0.02,0.01,1.0,0,-0,-0,0.02,0,0,0,0.0,0.0,0.0,0.0,0,0,0.0
2848,0,,,,-0.02,0.01,1.0,0,-0,-0,0.02,,,,,,,,,,
2853,0,2.57,2.54,,-0.02,0.01,1.0,0,-0,-0,0.02,,,,,,,,,,
2858,0,,,,-0.02,0.01,1.0,0,-0,-0,0.02,,,,,,,,,,
2863,0,2.59,2.55,,-0.02,0.01,1.0,0,-0,-0,0.02,,,0,,,,,,,
2868,0,,,,-0.02,0.01,1.0,0,-0,-0,0.02,,,,,,,,,,
2873,0,2.55,2.52,,-0.02,0.01,1.0,0,-0,-0,0.02,,,,,,,,,,
2878,0,,,,-0.02,0.01,1.0,0,-0,-0,0.02,,,,,,,,,,
2883,0,2.58,2.55,,-0.02,0.01,1.0,0,-0,-0,0.02,0,0,0,,,,,,,
2888,0,,,,-0.02,0.01,1.0,0,-0,-0,0.02,,,,,,,,,,
2893,0,2.58,2.54,,-0.02,0.01,1.0,0,-0,-0,0.02,,,,,,,,,,
2898,0,,,,-0.02,0.01,1.0,0,-0,-0,0.02,,,,,,,,,,
2903,0,2.55,2.52,,-0.02,0.01,1.0,0,-0,-0,0.02,,,0,,,,,,,
2908,0,,,,-0.02,0.01,1.0,0,-0,-0,0.02,,,,,,,,,,
2913,0,2.57,2.54,,-0.02,0.01,1.0,0,-0,-0,0.02,,,,,,,,,,
2918,0,,,,-0.02,0.01,1.0,0,-0,-0,0.02,,,,,,,,,,
2923,0,2.59,2.55,,-0.02,0.01,1.0,0,-0,-0,0.02,0,0,0,,,,,,,
2928,0,,,,-0.02,0.01,1.0,0,-0,-0,0.02,,,,,,,,,,
2933,0,2.58,2.55,,-0.02,0.01,1.0,0,-0,-0,0.02,,,,,,,,,,
2938,0,,,,-0.02,0.01,1.0,0,-0,-0,0.02,,,,,,,,,,
2943,0,2.56,2.53,,-0.02,0.01,1.0,0,-0,-0,0.02,,,0,0.0,0.0,0.0,0.0,0,0,0.0
2948,0,,,,-0.02,0.01,1.0,0,-0,-0,0.02,,,,,,,,,,
2953,0,2.58,2.53,,-0.02,0.01,1.0,0,-0,-0,0.02,,,,,,,,,,
2958,0,,,,-0.02,0.01,1.0,0,-0,-0,0.02,,,,,,,,,,
2963,0,2.54,2.54,,-0.02,0.01,1.0,0,-0,-0,0.02,0,0,0,,,,,,,
2968,0,,,,-0.02,0.01,1.0,0,-0,-0,0.02,,,,,,,,,,
2973,0,2.59,2.55,,-0.02,0.01,1.0,0,-0,-0,0.02,,,,,,,,,,
2978,0,,,,-0.02,0.01,1.0,0,-0,-0,0.02,,,,,,,,,,
2983,0,2.59,2.55,,-0.02,0.01,1.0,0,-0,-0,0.02,,,0,,,,,,,
2988,0,,,,-0.02,0.01,1.0,0,-0,-0,0.02,,,,,,,,,,
2993,0,2.57,2.53,,-0.02,0.01,1.0,0,-0,-0,0.02,,,,,,,,,,
2998,0,,,,-0.02,0.01,1.0,0,-0,-0,0.02,,,,,,,,,,
3003,0,2.54,2.51,,-0.02,0.01,1.0,0,-0,-0,0.02,0,0,0,,,,,,,
3008,0,,,,-0.02,0.01,1.0,0,-0,-0,0.02,,,,,,,,,,
3013,0,2.58,2.54,,-0.02,0.01,1.0,0,-0,-0,0.02,,,,,,,,,,
3018,0,,,,-0.02,0.01,1.0,0,-0,-0,0.02,,,,,,,,,,
3023,0,2.58,2.55,,-0.02,0.01,1.0,0,-0,-0,0.02,,,0,,,,,,,
3028,0,,,,-0.02,0.01,1.0,0,-0,-0,0.02,,,,,,,,,,
3033,0,2.57,2.52,,-0.02,0.01,1.0,0,-0,-0,0.02,,,,,,,,,,
3038,0,,,,-0.02,0.01,1.0,0,-0,-0,0.02,,,,,,,,,,
3043,0,2.56,2.53,13.63,-0.02,0.01,1.0,0,-0,-0,0.02,0,0,0,0.0,0.0,0.0,0.0,0,0,0.0
3048,0,,,,-0.02,0.01,1.0,0,-0,-0,0.02,,,,,,,,,,
3053,0,2.59,2.55,,-0.02,0.01,1.0,0,-0,-0,0.02,,,,,,,,,,
3058,0,,,,-0.02,0.01,1.0,0,-0,-0,0.02,,,,,,,,,,
3063,0,2.58,2.54,,-0.02,0.01,1.0,0,-0,-0,0.02,,,0,,,,,,,
3068,0,,,,-0.02,0.01,1.0,0,-0,-0,0.02,,,,,,,,,,
3073,0,2.58,2.55,,-0.02,0.01,1.0,0,-0,-0,0.02,,,,,,,,,,
3078,0,,,,-0.01,0.01,1.0,0,-0,-0,0.02,,,,,,,,,,
3083,0,2.54,2.5,,-0.01,0.01,1.0,0,-0,-0,0.02,0,0,0,,,,,,,
3088,0,,,,-0.01,0.01,1.0,0,-0,-0,0.02,,,,,,,,,,
3093,0,2.59,2.55,,-0.01,0.01,1.0,0,-0,-0,0.02,,,,,,,,,,
3098,0,,,,-0.01,0.01,1.0,0,-0,-0,0.02,,,,,,,,,,
3103,0,2.56,2.53,,-0.01,0.01,1.0,0,-0,-0,0.02,,,0,,,,,,,
3108,0,,,,-0.01,0.01,1.0,0,-0,-0,0.02,,,,,,,,,,
3113,0,2.58,2.55,,-0.01,0.01,1.0,0,-0,-0,0.02,,,,,,,,,,
3118,0,,,,-0.01,0.01,1.0,0,-0,-0,0.02,,,,,,,,,,
3123,0,2.58,2.54,,-0.01,0.01,1.0,0,-0,-0,0.02,0,0,0,,,,,,,
3128,0,,,,-0.01,0.01,1.0,0,-0,-0,0.02,,,,,,,,,,
3133,0,2.54,2.51,,-0.01,0.01,1.0,0,-0,-0,0.02,,,,,,,,,,
3138,0,,,,-0.01,0.01,1.0,0,-0,-0,0.02,,,,,,,,,,
3143,0,2.57,2.54,,-0.01,0.01,1.0,0,-0,-0,0.02,,,0,0.0,0.0,0.0,0.0,0,0,0.0
3148,0,,,,-0.01,0.01,1.0,0,-0,-0,0.02,,,,,,,,,,
3153,0,2.58,2.54,,-0.01,0.01,1.0,0,-0,-0,0.02,,,,,,,,,,
3158,0,,,,-0.01,0.01,1.0,0,-0,-0,0.02,,,,,,,,,,
3163,0,2.55,2.53,,-0.01,0.01,1.0,0,-0,-0,0.02,0,0,0,,,,,,,
3168,0,,,,-0.01,0.01,1.0,0,-0,-0,0.02,,,,,,,,,,
3173,0,2.54,2.51,,-0.01,0.01,1.0,0,-0,-0,0.02,,,,,,,,,,
3178,0,,,,-0.01,0.01,1.0,0,-0,-0,0.02,,,,,,,,,,
3183,0,2.58,2.55,,-0.01,0.01,1.0,0,-0,-0,0.02,,,0,,,,,,,
3188,0,,,,-0.01,0.01,1.0,0,-0,-0,0.02,,,,,,,,,,
3193,0,2.58,2.55,,-0.01,0.01,1.0,0,-0,-0,0.02,,,,,,,,,,
3198,0,,,,-0.01,0.01,1.0,0,-0,-0,0.02,,,,,,,,,,
3203,0,2.58,2.55,,-0.01,0.01,1.0,0,-0,-0,0.02,0,0,0,,,,,,,
3208,0,,,,-0.01,0.01,1.0,0,-0,-0,0.02,,,,,,,,,,
3213,0,2.57,2.54,,-0.01,0.01,1.0,0,-0,-0,0.02,,,,,,,,,,
3218,0,,,,-0.01,0.01,1.0,0,-0,-0,0.02,,,,,,,,,,
3223,0,2.56,2.53,,-0.02,0.01,1.0,0,-0,-0,0.02,,,0,,,,,,,
3228,0,,,,-0.02,0.01,1.0,0,-0,-0,0.02,,,,,,,,,,
3233,0,2.58,2.54,,-0.02,0.01,1.0,0,-0,-0,0.02,,,,,,,,,,
3238,0,,,,-0.02,0.01,1.0,0,-0,-0,0.02,,,,,,,,,,
3243,0,2.58,2.55,,-0.02,0.01,1.0,0,-0,-0,0.02,0,0,0,0.0,0.0,0.0,0.0,0,0,0.0
3248,0,,,,-0.02,0.01,1.0,0,-0,-0,0.02,,,,,,,,,,
3253,0,2.59,2.55,,-0.02,0.01,1.0,0,-0,-0,0.02,,,,,,,,,,
3258,0,,,,-0.02,0.01,1.0,0,-0,-0,0.02,,,,,,,,,,
3263,0,2.56,2.53,,-0.02,0.01,1.0,0,-0,-0,0.02,,,0,,,,,,,
3268,0,,,,-0.02,0.01,1.0,0,-0,-0,0.02,,,,,,,,,,
3273,0,2.58,2.55,,-0.02,0.01,1.0,0,-0,-0,0.02,,,,,,,,,,
3278,0,,,,-0.02,0.01,1.0,0,-0,-0,0.02,,,,,,,,,,
3283,0,2.58,2.54,,-0.02,0.01,1.0,0,-0,-0,0.02,0,0,0,,,,,,,
3288,0,,,,-0.02,0.01,1.0,0,-0,-0,0.02,,,,,,,,,,
3293,0,2.58,2.55,,-0.02,0.01,1.0,0,-0,-0,0.02,,,,,,,,,,
3298,0,,,,-0.02,0.01,1.0,0,-0,-0,0.02,,,,,,,,,,
3303,0,2.54,2.52,,-0.02,0.01,1.0,0,-0,-0,0.02,,,0,,,,,,,
3308,0,,,,-0.02,0.01,1.0,0,-0,-0,0.02,,,,,,,,,,
3313,0,2.55,2.52,,-0.02,0.01,1.0,0,-0,-0,0.02,,,,,,,,,,
3318,0,,,,-0.02,0.01,1.0,0,-0,-0,0.02,,,,,,,,,,
3323,0,2.57,2.54,,-0.02,0.01,1.0,0,-0,-0,0.02,0,0,0,,,,,,,
3328,0,,,,-0.02,0.01,1.0,0,-0,-0,0.02,,,,,,,,,,
3333,0,2.58,2.55,,-0.02,0.01,1.0,0,-0,-0,0.02,,,,,,,,,,
3338,0,,,,-0.01,0.01,1.0,0,-0,-0,0.02,,,,,,,,,,
3343,0,2.58,2.54,,-0.01,0.01,1.0,0,-0,-0,0.02,,,0,0.0,0.0,0.0,0.0,0,0,0.0
3348,0,,,,-0.01,0.01,1.0,0,-0,-0,0.02,,,,,,,,,,
3353,0,2.58,2.54,,-0.01,0.01,1.0,0,-0,-0,0.02,,,,,,,,,,
3358,0,,,,-0.02,0.01,1.0,0,-0,-0,0.02,,,,,,,,,,
3363,0,2.55,2.52,,-0.01,0.01,1.0,0,-0,-0,0.02,0,0,0,,,,,,,
3368,0,,,,-0.01,0.01,1.0,0,-0,-0,0.02,,,,,,,,,,
3373,0,2.54,2.51,,-0.01,0.01,1.0,0,-0,-0,0.02,,,,,,,,,,
3378,0,,,,-0.01,0.01,1.0,0,-0,-0,0.02,,,,,,,,,,
3383,0,2.54,2.51,,-0.01,0.01,1.0,0,-0,-0,0.02,,,0,,,,,,,
3388,0,,,,-0.01,0.01,1.0,0,-0,-0,0.02,,,,,,,,,,
3393,0,2.54,2.5,,-0.01,0.01,1.0,0,-0,-0,0.02,,,,,,,,,,
3398,0,,,,-0.02,0.01,1.0,0,-0,-0,0.02,,,,,,,,,,
3403,0,2.55,2.52,,-0.02,0.01,1.0,0,-0,-0,0.02,0,0,0,,,,,,,
3408,0,,,,-0.02,0.01,1.0,0,-0,-0,0.02,,,,,,,,,,
3413,0,2.59,2.55,,-0.02,0.01,1.0,0,-0,-0,0.02,,,,,,,,,,
3418,0,,,,-0.01,0.01,1.0,0,-0,-0,0.02,,,,,,,,,,
3423,0,2.53,2.5,,-0.02,0.01,1.0,0,-0,-0,0.02,,,0,,,,,,,
3428,0,,,,-0.02,0.01,1.0,0,-0,-0,0.02,,,,,,,,,,
3433,0,2.59,2.54,,-0.02,0.01,1.0,0,-0,-0,0.02,,,,,,,,,,
3438,0,,,,-0.02,0.01,1.0,0,-0,-0,0.02,,,,,,,,,,
3443,0,2.58,2.54,,-0.02,0.01,1.0,0,-0,-0,0.02,0,0,0,0.0,0.0,0.0,0.0,0,0,0.0
3448,0,,,,-0.02,0.01,1.0,0,-0,-0,0.02,,,,,,,,,,
3453,0,2.57,2.53,,-0.02,0.01,1.0,0,-0,-0,0.02,,,,,,,,,,
3458,0,,,,-0.02,0.01,1.0,0,-0,-0,0.02,,,,,,,,,,
3463,0,2.59,2.56,,-0.02,0.01,1.0,0,-0,-0,0.02,,,0,,,,,,,
3468,0,,,,-0.02,0.01,1.0,0,-0,-0,0.02,,,,,,,,,,
3473,0,2.56,2.53,,-0.02,0.01,1.0,0,-0,-0,0.02,,,,,,,,,,
3478,0,,,,-0.02,0.01,1.0,0,-0,-0,0.02,,,,,,,,,,
3483,0,2.57,2.53,,-0.02,0.01,1.0,0,-0,-0,0.02,0,0,0,,,,,,,
3488,0,,,,-0.02,0.01,1.0,0,-0,-0,0.02,,,,,,,,,,
3493,0,2.58,2.55,,-0.02,0.01,1.0,0,-0,-0,0.02,,,,,,,,,,
3498,0,,,,-0.02,0.01,1.0,0,-0,-0,0.02,,,,,,,,,,
3503,0,2.55,2.5,,-0.02,0.01,1.0,0,-0,-0,0.02,,,0,,,,,,,
3508,0,,,,-0.02,0.01,1.0,0,-0,-0,0.02,,,,,,,,,,
3513,0,2.58,2.54,,-0.02,0.01,1.0,0,-0,-0,0.02,,,,,,,,,,
3518,0,,,,-0.02,0.01,1.0,0,-0,-0,0.02,,,,,,,,,,
3523,0,2.55,2.52,,-0.02,0.01,1.0,0,-0,-0,0.02,0,0,0,,,,,,,
3528,0,,,,-0.02,0.01,1.0,0,-0,-0,0.02,,,,,,,,,,
3533,0,2.58,2.55,,-0.02,0.01,1.0,0,-0,-0,0.02,,,,,,,,,,
3538,0,,,,-0.02,0.01,1.0,0,-0,-0,0.02,,,,,,,,,,
3543,0,2.58,2.54,,-0.02,0.01,1.0,0,-0,-0,0.02,,,0,0.0,0.0,0.0,0.0,0,0,0.0
3548,0,,,,-0.02,0.01,1.0,0,-0,-0,0.02,,,,,,,,,,
3553,0,2.54,2.51,,-0.02,0.01,1.0,0,-0,-0,0.02,,,,,,,,,,
3558,0,,,,-0.02,0.01,1.0,0,-0,-0,0.02,,,,,,,,,,
3563,0,2.58,2.55,,-0.02,0.01,1.0,0,-0,-0,0.02,0,0,0,,,,,,,
3568,0,,,,-0.02,0.01,1.0,0,-0,-0,0.02,,,,,,,,,,
3573,0,2.59,2.55,,-0.02,0.01,1.0,0,-0,-0,0.02,,,,,,,,,,
3578,0,,,,-0.02,0.01,1.0,0,-0,-0,0.02,,,,,,,,,,
3583,0,2.56,2.53,,-0.02,0.01,1.0,0,-0,-0,0.02,,,0,,,,,,,
3588,0,,,,-0.02,0.01,1.0,0,-0,-0,0.02,,,,,,,,,,
3593,0,2.59,2.55,,-0.02,0.01,1.0,0,-0,-0,0.02,,,,,,,,,,
3598,0,,,,-0.02,0.01,1.0,0,-0,-0,0.02,,,,,,,,,,
3603,0,2.56,2.53,,-0.02,0.01,1.0,0,-0,-0,0.02,0,0,0,,,,,,,
3608,0,,,,-0.02,0.01,1.0,0,-0,-0,0.02,,,,,,,,,,
3613,0,2.58,2.54,,-0.02,0.01,1.0,0,-0,-0,0.02,,,,,,,,,,
3618,0,,,,-0.02,0.01,1.0,0,-0,-0,0.02,,,,,,,,,,
3623,0,2.58,2.54,,-0.01,0.01,1.0,0,-0,-0,0.02,,,0,,,,,,,
3628,0,,,,-0.01,0.01,1.0,0,-0,-0,0.02,,,,,,,,,,
3633,0,2.55,2.54,,-0.01,0.01,1.0,0,-0,-0,0.02,,,,,,,,,,
3638,0,,,,-0.01,0.01,1.0,0,-0,-0,0.02,,,,,,,,,,
3643,0,2.58,2.55,,-0.01,0.01,1.0,0,-0,-0,0.02,0,0,0,0.0,0.0,0.0,0.0,0,0,0.0
3648,0,,,,-0.01,0.01,1.0,0,-0,-0,0.02,,,,,,,,,,
3653,0,2.54,2.5,,-0.01,0.01,1.0,0,-0,-0,0.02,,,,,,,,,,
3658,0,,,,-0.01,0.01,1.0,0,-0,-0,0.02,,,,,,,,,,
3663,0,2.59,2.55,,-0.01,0.01,1.0,0,-0,-0,0.02,,,0,,,,,,,
3668,0,,,,-0.01,0.01,1.0,0,0,-0,0.02,,,,,,,,,,
3673,0,2.58,2.55,,-0.01,0.01,1.0,0,0,-0,0.02,,,,,,,,,,
3678,0,,,,-0.01,0.01,1.0,0,-0,-0,0.02,,,,,,,,,,
3683,0,2.57,2.53,,-0.01,0.01,1.0,0,-0,-0,0.02,0,0,0,,,,,,,
3688,0,,,,-0.01,0.01,1.0,0,-0,-0,0.02,,,,,,,,,,
3693,0,2.59,2.55,,-0.02,0.01,1.0,0,-0,-0,0.02,,,,,,,,,,
3698,0,,,,-0.02,0.01,1.0,0,-0,-0,0.02,,,,,,,,,,
3703,0,2.58,2.53,,-0.02,0.01,1.0,0,-0,-0,0.02,,,0,,,,,,,
3708,0,,,,-0.02,0.01,1.0,0,-0,-0,0.02,,,,,,,,,,
3713,0,2.57,2.54,,-0.02,0.01,1.0,0,-0,-0,0.02,,,,,,,,,,
3718,0,,,,-0.02,0.01,1.0,0,-0,-0,0.02,,,,,,,,,,
3723,0,2.58,2.54,,-0.01,0.01,1.0,0,-0,-0,0.02,0,0,0,,,,,,,
3728,0,,,,-0.02,0.01,1.0,0,-0,-0,0.02,,,,,,,,,,
3733,0,2.58,2.55,,-0.01,0.01,1.0,0,-0,-0,0.02,,,,,,,,,,
3738,0,,,,-0.02,0.01,1.0,0,-0,-0,0.02,,,,,,,,,,
3743,0,2.58,2.55,,-0.02,0.01,1.0,0,-0,-0,0.02,,,0,0.0,0.0,0.0,0.0,0,0,0.0
3748,0,,,,-0.02,0.01,1.0,0,-0,-0,0.02,,,,,,,,,,
3753,0,2.58,2.54,,-0.02,0.01,1.0,0,-0,-0,0.02,,,,,,,,,,
3758,0,,,,-0.02,0.01,1.0,0,-0,-0,0.02,,,,,,,,,,
3763,0,2.56,2.52,,-0.02,0.01,1.0,0,-0,-0,0.02,0,0,0,,,,,,,
3768,0,,,,-0.02,0.01,1.0,0,-0,-0,0.02,,,,,,,,,,
3773,0,2.58,2.54,,-0.02,0.01,1.0,0,-0,-0,0.02,,,,,,,,,,
3778,0,,,,-0.02,0.01,1.0,0,-0,-0,0.02,,,,,,,,,,
3783,0,2.58,2.55,,-0.02,0.01,1.0,0,-0,-0,0.02,,,0,,,,,,,
3788,0,,,,-0.02,0.01,1.0,0,-0,-0,0.02,,,,,,,,,,
3793,0,2.58,2.54,,-0.02,0.01,1.0,0,-0,-0,0.02,,,,,,,,,,
3798,0,,,,-0.02,0.01,1.0,0,-0,-0,0.02,,,,,,,,,,
3803,0,2.58,2.54,,-0.02,0.01,1.0,0,-0,-0,0.02,0,0,0,,,,,,,
3808,0,,,,-0.02,0.01,1.0,0,-0,-0,0.02,,,,,,,,,,
3813,0,2.58,2.55,,-0.02,0.01,1.0,0,-0,-0,0.02,,,,,,,,,,
3818,0,,,,-0.02,0.01,1.0,0,-0,-0,0.02,,,,,,,,,,
3823,0,2.58,2.55,,-0.01,0.01,1.0,0,-0,-0,0.02,,,0,,,,,,,
3828,0,,,,-0.01,0.01,1.0,0,-0,-0,0.02,,,,,,,,,,
3833,0,2.58,2.55,,-0.01,0.01,1.0,0,-0,-0,0.02,,,,,,,,,,
3838,0,,,,-0.01,0.01,1.0,0,-0,-0,0.02,,,,,,,,,,
3843,0,2.58,2.55,,-0.01,0.01,1.0,0,-0,-0,0.02,0,0,0,0.0,0.0,0.0,0.0,0,0,0.0
3848,0,,,,-0.01,0.01,1.0,0,-0,-0,0.02,,,,,,,,,,
3853,0,2.58,2.54,,-0.01,0.01,1.0,0,-0,-0,0.02,,,,,,,,,,
3858,0,,,,-0.01,0.01,1.0,0,-0,-0,0.02,,,,,,,,,,
3863,0,2.56,2.52,,-0.01,0.01,1.0,0,-0,-0,0.02,,,0,,,,,,,
3868,0,,,,-0.01,0.01,1.0,0,-0,-0,0.02,,,,,,,,,,
3873,0,2.55,2.52,,-0.01,0.01,1.0,0,-0,-0,0.02,,,,,,,,,,
3878,0,,,,-0.01,0.01,1.0,0,-0,-0,0.02,,,,,,,,,,
3883,0,2.58,2.55,,-0.01,0.01,1.0,0,-0,-0,0.02,0,0,0,,,,,,,
3888,0,,,,-0.01,0.01,1.0,0,-0,-0,0.02,,,,,,,,,,
3893,0,2.58,2.55,,-0.01,0.01,1.0,0,-0,-0,0.02,,,,,,,,,,
3898,0,,,,-0.01,0.01,1.0,0,-0,-0,0.02,,,,,,,,,,
3903,0,2.56,2.54,,-0.02,0.01,1.0,0,-0,-0,0.02,,,0,,,,,,,
3908,0,,,,-0.02,0.01,1.0,0,-0,-0,0.02,,,,,,,,,,
3913,0,2.56,2.53,,-0.02,0.01,1.0,0,-0,-0,0.02,,,,,,,,,,
3918,0,,,,-0.02,0.01,1.0,0,-0,-0,0.02,,,,,,,,,,
3923,0,2.54,2.5,,-0.02,0.01,1.0,0,-0,-0,0.02,0,0,0,,,,,,,
3928,0,,,,-0.02,0.01,1.0,0,-0,-0,0.02,,,,,,,,,,
3933,0,2.58,2.55,,-0.02,0.01,1.0,0,-0,-0,0.02,,,,,,,,,,
3938,0,,,,-0.02,0.01,1.0,0,-0,-0,0.02,,,,,,,,,,
3943,0,2.58,2.55,,-0.02,0.01,1.0,0,-0,-0,0.02,,,0,0.0,0.0,0.0,0.0,0,0,0.0
3948,0,,,,-0.02,0.01,1.0,0,-0,-0,0.02,,,,,,,,,,
3953,0,2.58,2.55,,-0.02,0.01,1.0,0,-0,-0,0.02,,,,,,,,,,
3958,0,,,,-0.02,0.01,1.0,0,-0,-0,0.02,,,,,,,,,,
3963,0,2.58,2.56,,-0.02,0.01,1.0,0,-0,-0,0.02,0,0,0,,,,,,,
3968,0,,,,-0.02,0.01,1.0,0,-0,-0,0.02,,,,,,,,,,
3973,0,2.58,2.55,,-0.02,0.01,1.0,0,-0,-0,0.02,,,,,,,,,,
3978,0,,,,-0.02,0.01,1.0,0,-0,-0,0.02,,,,,,,,,,
3983,0,2.57,2.54,,-0.02,0.01,1.0,0,-0,-0,0.02,,,0,,,,,,,
3988,0,,,,-0.02,0.01,1.0,0,-0,-0,0.02,,,,,,,,,,
3993,0,2.56,2.52,,-0.02,0.01,1.0,0,-0,-0,0.02,,,,,,,,,,
3998,0,,,,-0.02,0.01,1.0,0,-0,-0,0.02,,,,,,,,,,
4003,0,2.55,2.52,,-0.02,0.01,1.0,0,-0,-0,0.02,0,0,0,,,,,,,
4008,0,,,,-0.02,0.01,1.0,0,-0,-0,0.02,,,,,,,,,,
4013,0,2.57,2.54,,-0.02,0.01,1.0,0,-0,-0,0.02,,,,,,,,,,
4018,0,,,,-0.02,0.01,1.0,0,-0,-0,0.02,,,,,,,,,,
4023,0,2.58,2.54,,-0.02,0.01,1.0,0,-0,-0,0.02,,,0,,,,,,,
4028,0,,,,-0.02,0.01,1.0,0,-0,-0,0.02,,,,,,,,,,
4033,0,2.58,2.55,,-0.02,0.01,1.0,0,-0,-0,0.02,,,,,,,,,,
4038,0,,,,-0.02,0.01,1.0,0,-0,-0,0.02,,,,,,,,,,
4043,0,2.58,2.54,13.63,-0.02,0.01,1.0,0,-0,-0,0.02,0,0,0,0.0,0.0,0.0,0.0,0,0,0.0
4048,0,,,,-0.02,0.01,1.0,0,-0,-0,0.02,,,,,,,,,,
4053,0,2.59,2.55,,-0.02,0.01,1.0,0,-0,-0,0.02,,,,,,,,,,
4058,0,,,,-0.02,0.01,1.0,0,-0,-0,0.02,,,,,,,,,,
4063,0,2.56,2.52,,-0.02,0.01,1.0,0,-0,-0,0.02,,,0,,,,,,,
4068,0,,,,-0.02,0.01,1.0,0,-0,-0,0.02,,,,,,,,,,
4073,0,2.58,2.55,,-0.02,0.01,1.0,0,-0,-0,0.02,,,,,,,,,,
4078,0,,,,-0.02,0.01,1.0,0,-0,-0,0.02,,,,,,,,,,
4083,0,2.59,2.55,,-0.02,0.01,1.0,0,-0,-0,0.02,0,0,0,,,,,,,
4088,0,,,,-0.02,0.01,1.0,0,-0,-0,0.02,,,,,,,,,,
4093,0,2.56,2.53,,-0.02,0.01,1.0,0,-0,-0,0.02,,,,,,,,,,
4098,0,,,,-0.02,0.01,1.0,0,-0,-0,0.02,,,,,,,,,,
4103,0,2.57,2.55,,-0.02,0.01,1.0,0,-0,-0,0.02,,,0,,,,,,,
4108,0,,,,-0.02,0.01,1.0,0,-0,-0,0.02,,,,,,,,,,
4113,0,2.55,2.52,,-0.02,0.01,1.0,0,-0,-0,0.02,,,,,,,,,,
4118,0,,,,-0.02,0.01,1.0,0,-0,-0,0.02,,,,,,,,,,
4123,0,2.58,2.55,,-0.02,0.01,1.0,0,-0,-0,0.02,0,0,0,,,,,,,
4128,0,,,,-0.02,0.01,1.0,0,-0,-0,0.02,,,,,,,,,,
4133,0,2.55,2.52,,-0.02,0.01,1.0,0,-0,-0,0.02,,,,,,,,,,
4138,0,,,,-0.02,0.01,1.0,0,-0,-0,0.02,,,,,,,,,,
4143,0,2.58,2.55,,-0.02,0.01,1.0,0,-0,-0,0.02,,,0,0.0,0.0,0.0,0.0,0,0,0.0
4148,0,,,,-0.02,0.01,1.0,0,-0,-0,0.02,,,,,,,,,,
4153,0,2.54,2.5,,-0.02,0.01,1.0,0,-0,-0,0.02,,,,,,,,,,
4158,0,,,,-0.01,0.01,1.0,0,-0,-0,0.02,,,,,,,,,,
4163,0,2.58,2.55,,-0.01,0.01,1.0,0,-0,-0,0.02,0,0,0,,,,,,,
4168,0,,,,-0.01,0.01,1.0,0,-0,-0,0.02,,,,,,,,,,
4173,0,2.55,2.54,,-0.01,0.01,1.0,0,-0,-0,0.02,,,,,,,,,,
4178,0,,,,-0.01,0.01,1.0,0,-0,-0,0.02,,,,,,,,,,
4183,0,2.59,2.55,,-0.01,0.01,1.0,0,-0,-0,0.02,,,0,,,,,,,
4188,0,,,,-0.01,0.01,1.0,0,-0,-0,0.02,,,,,,,,,,
4193,0,2.57,2.54,,-0.01,0.01,1.0,0,-0,-0,0.02,,,,,,,,,,
4198,0,,,,-0.01,0.01,1.0,0,-0,-0,0.02,,,,,,,,,,
4203,0,2.58,2.55,,-0.01,0.01,1.0,0,-0,-0,0.02,0,0,0,,,,,,,
4208,0,,,,-0.01,0.01,1.0,0,-0,-0,0.02,,,,,,,,,,
4213,0,2.55,2.51,,-0.01,0.01,1.0,0,-0,-0,0.02,,,,,,,,,,
4218,0,,,,-0.01,0.01,1.0,0,-0,-0,0.02,,,,,,,,,,
4223,0,2.58,2.55,,-0.01,0.01,1.0,0,-0,-0,0.02,,,0,,,,,,,
4228,0,,,,-0.01,0.01,1.0,0,-0,-0,0.02,,,,,,,,,,
4233,0,2.54,2.5,,-0.01,0.01,1.0,0,-0,-0,0.02,,,,,,,,,,
4238,0,,,,-0.01,0.01,1.0,0,-0,-0,0.02,,,,,,,,,,
4243,0,2.57,2.54,,-0.02,0.01,1.0,0,-0,-0,0.02,0,0,0,0.0,0.0,0.0,0.0,0,0,0.0
4248,0,,,,-0.01,0.01,1.0,0,-0,-0,0.02,,,,,,,,,,
4253,0,2.57,2.54,,-0.01,0.01,1.0,0,-0,-0,0.02,,,,,,,,,,
4258,0,,,,-0.02,0.01,1.0,0,-0,-0,0.02,,,,,,,,,,
4263,0,2.58,2.54,,-0.02,0.01,1.0,0,-0,-0,0.02,,,0,,,,,,,
4268,0,,,,-0.01,0.01,1.0,0,-0,-0,0.02,,,,,,,,,,
4273,0,2.55,2.51,,-0.02,0.01,1.0,0,-0,-0,0.02,,,,,,,,,,
4278,0,,,,-0.02,0.01,1.0,0,-0,-0,0.02,,,,,,,,,,
4283,0,2.58,2.55,,-0.02,0.01,1.0,0,-0,-0,0.02,0,0,0,,,,,,,
4288,0,,,,-0.02,0.01,1.0,0,-0,-0,0.02,,,,,,,,,,
4293,0,2.58,2.54,,-0.02,0.01,1.0,0,-0,-0,0.02,,,,,,,,,,
4298,0,,,,-0.02,0.01,1.0,0,-0,-0,0.02,,,,,,,,,,
4303,0,2.54,2.52,,-0.02,0.01,1.0,0,-0,-0,0.02,,,0,,,,,,,
4308,0,,,,-0.02,0.01,1.0,0,-0,-0,0.02,,,,,,,,,,
4313,0,2.59,2.55,,-0.02,0.01,1.0,0,-0,-0,0.02,,,,,,,,,,
4318,0,,,,-0.02,0.01,1.0,0,-0,-0,0.02,,,,,,,,,,
4323,0,2.55,2.51,,-0.02,0.01,1.0,0,-0,-0,0.02,0,0,0,,,,,,,
4328,0,,,,-0.02,0.01,1.0,0,-0,-0,0.02,,,,,,,,,,
4333,0,2.59,2.55,,-0.02,0.01,1.0,0,-0,-0,0.02,,,,,,,,,,
4338,0,,,,-0.02,0.01,1.0,0,-0,-0,0.02,,,,,,,,,,
4343,0,2.58,2.55,,-0.02,0.01,1.0,0,-0,-0,0.02,,,0,0.0,0.0,0.0,0.0,0,0,0.0
4348,0,,,,-0.02,0.01,1.0,0,-0,-0,0.02,,,,,,,,,,
4353,0,2.54,2.5,,-0.02,0.01,1.0,0,-0,-0,0.02,,,,,,,,,,
4358,0,,,,-0.02,0.01,1.0,0,-0,-0,0.02,,,,,,,,,,
4363,0,2.58,2.55,,-0.02,0.01,1.0,0,-0,-0,0.02,0,0,0,,,,,,,
4368,0,,,,-0.02,0.01,1.0,0,-0,-0,0.02,,,,,,,,,,
4373,0,2.55,2.53,,-0.02,0.01,1.0,0,-0,-0,0.02,,,,,,,,,,
4378,0,,,,-0.02,0.01,1.0,0,-0,-0,0.02,,,,,,,,,,
4383,0,2.54,2.51,,-0.02,0.01,1.0,0,-0,-0,0.02,,,0,,,,,,,
4388,0,,,,-0.02,0.01,1.0,0,-0,-0,0.02,,,,,,,,,,
4393,0,2.59,2.55,,-0.02,0.01,1.0,0,-0,-0,0.02,,,,,,,,,,
4398,0,,,,-0.02,0.01,1.0,0,-0,-0,0.02,,,,,,,,,,
4403,0,2.58,2.55,,-0.02,0.01,1.0,0,-0,-0,0.02,0,0,0,,,,,,,
4408,0,,,,-0.02,0.01,1.0,0,-0,-0,0.02,,,,,,,,,,
4413,0,2.58,2.54,,-0.02,0.01,1.0,0,-0,-0,0.02,,,,,,,,,,
4418,0,,,,-0.02,0.01,1.0,0,-0,-0,0.02,,,,,,,,,,
4423,0,2.56,2.53,,-0.02,0.01,1.0,0,-0,-0,0.02,,,0,,,,,,,
4428,0,,,,-0.02,0.01,1.0,0,-0,-0,0.02,,,,,,,,,,
4433,0,2.56,2.52,,-0.02,0.01,1.0,0,-0,-0,0.02,,,,,,,,,,
4438,0,,,,-0.02,0.01,1.0,0,-0,-0,0.02,,,,,,,,,,
4443,0,2.54,2.52,,-0.02,0.01,1.0,0,-0,-0,0.02,0,0,0,0.0,0.0,0.0,0.0,0,0,0.0
4448,0,,,,-0.02,0.01,1.0,0,-0,-0,0.02,,,,,,,,,,
4453,0,2.55,2.52,,-0.02,0.01,1.0,0,-0,-0,0.02,,,,,,,,,,
4458,0,,,,-0.02,0.01,1.0,0,-0,-0,0.02,,,,,,,,,,
4463,0,2.56,2.53,,-0.02,0.01,1.0,0,-0,-0,0.02,,,0,,,,,,,
4468,0,,,,-0.02,0.01,1.0,0,-0,-0,0.02,,,,,,,,,,
4473,0,2.58,2.55,,-0.02,0.01,1.0,0,-0,-0,0.02,,,,,,,,,,
4478,0,,,,-0.02,0.01,1.0,0,-0,-0,0.02,,,,,,,,,,
4483,0,2.58,2.55,,-0.02,0.01,1.0,0,-0,-0,0.02,0,0,0,,,,,,,
4488,0,,,,-0.02,0.01,1.0,0,-0,-0,0.02,,,,,,,,,,
4493,0,2.58,2.54,,-0.02,0.01,1.0,0,-0,-0,0.02,,,,,,,,,,
4498,0,,,,-0.02,0.01,1.0,0,-0,-0,0.02,,,,,,,,,,
4503,0,2.58,2.55,,-0.02,0.01,1.0,0,-0,-0,0.02,,,0,,,,,,,
4508,0,,,,-0.02,0.01,1.0,0,-0,-0,0.02,,,,,,,,,,
4513,0,2.58,2.55,,-0.02,0.01,1.0,0,-0,-0,0.02,,,,,,,,,,
4518,0,,,,-0.02,0.01,1.0,0,-0,-0,0.02,,,,,,,,,,
4523,0,2.58,2.55,,-0.02,0.01,1.0,0,-0,-0,0.02,0,0,0,,,,,,,
4528,0,,,,-0.02,0.01,1.0,0,-0,-0,0.02,,,,,,,,,,
4533,0,2.58,2.55,,-0.02,0.01,1.0,0,-0,-0,0.02,,,,,,,,,,
4538,0,,,,-0.02,0.01,1.0,0,-0,-0,0.02,,,,,,,,,,
4543,0,2.56,2.52,,-0.02,0.01,1.0,0,-0,-0,0.02,,,0,0.0,0.0,0.0,0.0,0,0,0.0
4548,0,,,,-0.02,0.01,1.0,0,-0,-0,0.02,,,,,,,,,,
4553,0,2.54,2.5,,-0.02,0.01,1.0,0,-0,-0,0.02,,,,,,,,,,
4558,0,,,,-0.02,0.01,1.0,0,-0,-0,0.02,,,,,,,,,,
4563,0,2.57,2.54,,-0.01,0.01,1.0,0,-0,-0,0.02,0,0,0,,,,,,,
4568,0,,,,-0.02,0.01,1.0,0,-0,-0,0.02,,,,,,,,,,
4573,0,2.58,2.54,,-0.02,0.01,1.0,0,-0,-0,0.02,,,,,,,,,,
4578,0,,,,-0.02,0.01,1.0,0,-0,-0,0.02,,,,,,,,,,
4583,0,2.58,2.55,,-0.02,0.01,1.0,0,-0,-0,0.02,,,0,,,,,,,
4588,0,,,,-0.02,0.01,1.0,0,-0,-0,0.02,,,,,,,,,,
4593,0,2.55,2.52,,-0.02,0.01,1.0,0,-0,-0,0.02,,,,,,,,,,
4598,0,,,,-0.02,0.01,1.0,0,-0,-0,0.02,,,,,,,,,,
4603,0,2.54,2.51,,-0.02,0.01,1.0,0,-0,-0,0.02,0,0,0,,,,,,,
4608,0,,,,-0.02,0.01,1.0,0,-0,-0,0.02,,,,,,,,,,
4613,0,2.55,2.52,,-0.02,0.01,1.0,0,-0,-0,0.02,,,,,,,,,,
4618,0,,,,-0.02,0.01,1.0,0,-0,-0,0.02,,,,,,,,,,
4623,0,2.58,2.55,,-0.02,0.01,1.0,0,-0,-0,0.02,,,0,,,,,,,
4628,0,,,,-0.02,0.01,1.0,0,-0,-0,0.02,,,,,,,,,,
4633,0,2.58,2.55,,-0.02,0.01,1.0,0,-0,-0,0.02,,,,,,,,,,
4638,0,,,,-0.02,0.01,1.0,0,-0,-0,0.02,,,,,,,,,,
4643,0,2.59,2.55,,-0.02,0.01,1.0,0,-0,-0,0.02,0,0,0,0.0,0.0,0.0,0.0,0,0,0.0
4648,0,,,,-0.02,0.01,1.0,0,-0,-0,0.02,,,,,,,,,,
4653,0,2.58,2.54,,-0.02,0.01,1.0,0,-0,-0,0.02,,,,,,,,,,
4658,0,,,,-0.02,0.01,1.0,0,-0,-0,0.02,,,,,,,,,,
4663,0,2.54,2.51,,-0.02,0.01,1.0,0,-0,-0,0.02,,,0,,,,,,,
4668,0,,,,-0.01,0.01,1.0,0,-0,-0,0.02,,,,,,,,,,
4673,0,2.58,2.55,,-0.02,0.01,1.0,0,-0,-0,0.02,,,,,,,,,,
4678,0,,,,-0.02,0.01,1.0,0,-0,-0,0.02,,,,,,,,,,
4683,0,2.59,2.55,,-0.01,0.01,1.0,0,-0,-0,0.02,0,0,0,,,,,,,
4688,0,,,,-0.01,0.01,1.0,0,-0,-0,0.02,,,,,,,,,,
4693,0,2.58,2.55,,-0.01,0.01,1.0,0,-0,-0,0.02,,,,,,,,,,
4698,0,,,,-0.01,0.01,1.0,0,-0,-0,0.02,,,,,,,,,,
4703,0,2.58,2.54,,-0.02,0.01,1.0,0,-0,-0,0.02,,,0,,,,,,,
4708,0,,,,-0.02,0.01,1.0,0,-0,-0,0.02,,,,,,,,,,
4713,0,2.55,2.51,,-0.02,0.01,1.0,0,-0,-0,0.02,,,,,,,,,,
4718,0,,,,-0.02,0.01,1.0,0,-0,-0,0.02,,,,,,,,,,
4723,0,2.58,2.55,,-0.02,0.01,1.0,0,-0,-0,0.02,0,0,0,,,,,,,
4728,0,,,,-0.02,0.01,1.0,0,-0,-0,0.02,,,,,,,,,,
4733,0,2.56,2.53,,-0.01,0.01,1.0,0,-0,-0,0.02,,,,,,,,,,
4738,0,,,,-0.02,0.01,1.0,0,-0,-0,0.02,,,,,,,,,,
4743,0,2.58,2.54,,-0.02,0.01,1.0,0,-0,-0,0.02,,,0,0.0,0.0,0.0,0.0,0,0,0.0
4748,0,,,,-0.02,0.01,1.0,0,-0,-0,0.02,,,,,,,,,,
4753,0,2.55,2.52,,-0.02,0.01,1.0,0,-0,-0,0.02,,,,,,,,,,
4758,0,,,,-0.02,0.01,1.0,0,-0,-0,0.02,,,,,,,,,,
4763,0,2.58,2.55,,-0.02,0.01,1.0,0,-0,-0,0.02,0,0,0,,,,,,,
4768,0,,,,-0.02,0.01,1.0,0,-0,-0,0.02,,,,,,,,,,
4773,0,2.54,2.51,,-0.02,0.01,1.0,0,-0,-0,0.02,,,,,,,,,,
4778,0,,,,-0.02,0.01,1.0,0,-0,-0,0.02,,,,,,,,,,
4783,0,2.58,2.55,,-0.02,0.01,1.0,0,-0,-0,0.02,,,0,,,,,,,
4788,0,,,,-0.02,0.01,1.0,0,-0,-0,0.02,,,,,,,,,,
4793,0,2.58,2.55,,-0.02,0.01,1.0,0,-0,-0,0.02,,,,,,,,,,
4798,0,,,,-0.02,0.01,1.0,0,-0,-0,0.02,,,,,,,,,,
4803,0,2.58,2.54,,-0.01,0.01,1.0,0,-0,-0,0.02,0,0,0,,,,,,,
4808,0,,,,-0.01,0.01,1.0,0,-0,-0,0.02,,,,,,,,,,
4813,0,2.57,2.54,,-0.01,0.01,1.0,0,-0,-0,0.02,,,,,,,,,,
4818,0,,,,-0.01,0.01,1.0,0,-0,-0,0.02,,,,,,,,,,
4823,0,2.53,2.5,,-0.01,0.01,1.0,0,-0,-0,0.02,,,0,,,,,,,
4828,0,,,,-0.01,0.01,1.0,0,-0,-0,0.02,,,,,,,,,,
4833,0,2.59,2.55,,-0.02,0.01,1.0,0,-0,-0,0.02,,,,,,,,,,
4838,0,,,,-0.02,0.01,1.0,0,-0,-0,0.02,,,,,,,,,,
4843,0,2.56,2.54,,-0.02,0.01,1.0,0,-0,-0,0.02,0,0,0,0.0,0.0,0.0,0.0,0,0,0.0
4848,0,,,,-0.02,0.01,1.0,0,-0,-0,0.02,,,,,,,,,,
4853,0,2.58,2.55,,-0.02,0.01,1.0,0,-0,-0,0.02,,,,,,,,,,
4858,0,,,,-0.02,0.01,1.0,0,-0,-0,0.02,,,,,,,,,,
4863,0,2.54,2.5,,-0.02,0.01,1.0,0,-0,-0,0.02,,,0,,,,,,,
4868,0,,,,-0.02,0.01,1.0,0,-0,-0,0.02,,,,,,,,,,
4873,0,2.58,2.55,,-0.02,0.01,1.0,0,-0,-0,0.02,,,,,,,,,,
4878,0,,,,-0.02,0.01,1.0,0,-0,-0,0.02,,,,,,,,,,
4883,0,2.54,2.51,,-0.02,0.01,1.0,0,-0,-0,0.02,0,0,0,,,,,,,
4888,0,,,,-0.02,0.01,1.0,0,-0,-0,0.02,,,,,,,,,,
4893,0,2.58,2.55,,-0.02,0.01,1.0,0,-0,-0,0.02,,,,,,,,,,
4898,0,,,,-0.02,0.01,1.0,0,-0,-0,0.02,,,,,,,,,,
4903,0,2.59,2.55,,-0.02,0.01,1.0,0,-0,-0,0.02,,,0,,,,,,,
4908,0,,,,-0.02,0.01,1.0,0,-0,-0,0.02,,,,,,,,,,
4913,0,2.56,2.54,,-0.02,0.01,1.0,0,-0,-0,0.02,,,,,,,,,,
4918,0,,,,-0.02,0.01,1.0,0,-0,-0,0.02,,,,,,,,,,
4923,0,2.56,2.53,,-0.02,0.01,1.0,0,-0,-0,0.02,0,0,0,,,,,,,
4928,0,,,,-0.02,0.01,1.0,0,-0,-0,0.02,,,,,,,,,,
4933,0,2.57,2.54,,-0.02,0.01,1.0,0,-0,-0,0.02,,,,,,,,,,
4938,0,,,,-0.02,0.01,1.0,0,-0,-0,0.02,,,,,,,,,,
4943,0,2.55,2.51,,-0.02,0.01,1.0,0,-0,-0,0.02,,,0,0.0,0.0,0.0,0.0,0,0,0.0
4948,0,,,,-0.02,0.01,1.0,0,-0,-0,0.02,,,,,,,,,,
4953,0,2.58,2.55,,-0.02,0.01,1.0,0,-0,-0,0.02,,,,,,,,,,
4958,0,,,,-0.02,0.01,1.0,0,-0,-0,0.02,,,,,,,,,,
4963,0,2.58,2.55,,-0.02,0.01,1.0,0,-0,-0,0.02,0,0,0,,,,,,,
4968,0,,,,-0.02,0.01,1.0,0,-0,-0,0.02,,,,,,,,,,
4973,0,2.57,2.53,,-0.02,0.01,1.0,0,-0,-0,0.02,,,,,,,,,,
4978,0,,,,-0.02,0.01,1.0,0,-0,-0,0.02,,,,,,,,,,
4983,0,2.57,2.53,,-0.02,0.01,1.0,0,-0,-0,0.02,,,0,,,,,,,
4988,0,,,,-0.02,0.01,1.0,0,-0,-0,0.02,,,,,,,,,,
4993,0,2.58,2.54,,-0.02,0.01,1.0,0,-0,-0,0.02,,,,,,,,,,
4998,0,,,,-0.01,0.01,1.0,0,-0,-0,0.02,,,,,,,,,,
5003,0,2.58,2.55,,-0.01,0.01,1.0,0,-0,-0,0.02,0,0,0,,,,,,,
5008,0,,,,-0.01,0.01,1.0,0,-0,-0,0.02,,,,,,,,,,
5013,0,2.54,2.51,,-0.01,0.01,1.0,0,-0,-0,0.02,,,,,,,,,,
5018,0,,,,-0.01,0.01,1.0,0,-0,-0,0.02,,,,,,,,,,
5023,0,2.58,2.55,,-0.01,0.01,1.0,0,-0,-0,0.02,,,0,,,,,,,
5028,0,,,,-0.01,0.01,1.0,0,-0,-0,0.02,,,,,,,,,,
5033,0,2.58,2.55,,-0.01,0.01,1.0,0,-0,-0,0.02,,,,,,,,,,
5038,0,,,,-0.01,0.01,1.0,0,-0,-0,0.02,,,,,,,,,,
5043,0,2.58,2.55,13.65,-0.01,0.01,1.0,0,-0,-0,0.02,0,0,0,0.0,0.0,0.0,0.0,0,0,0.0
5048,0,,,,-0.01,0.01,1.0,0,-0,-0,0.02,,,,,,,,,,
5053,0,2.57,2.53,,-0.01,0.01,1.0,0,-0,-0,0.02,,,,,,,,,,
5058,0,,,,-0.01,0.01,1.0,0,-0,-0,0.02,,,,,,,,,,
5063,0,2.57,2.54,,-0.01,0.01,1.0,0,-0,-0,0.02,,,0,,,,,,,
5068,0,,,,-0.01,0.01,1.0,0,-0,-0,0.02,,,,,,,,,,
5073,0,2.58,2.55,,-0.01,0.01,1.0,0,-0,-0,0.02,,,,,,,,,,
5078,0,,,,-0.01,0.01,1.0,0,-0,-0,0.02,,,,,,,,,,
5083,0,2.58,2.55,,-0.01,0.01,1.0,0,-0,-0,0.02,0,0,0,,,,,,,
5088,0,,,,-0.01,0.01,1.0,0,-0,-0,0.02,,,,,,,,,,
5093,0,2.58,2.54,,-0.01,0.01,1.0,0,-0,-0,0.02,,,,,,,,,,
5098,0,,,,-0.01,0.01,1.0,0,-0,-0,0.02,,,,,,,,,,
5103,0,2.58,2.54,,-0.01,0.01,1.0,0,-0,-0,0.02,,,0,,,,,,,
5108,0,,,,-0.01,0.01,1.0,0,-0,-0,0.02,,,,,,,,,,
5113,0,2.58,2.54,,-0.01,0.01,1.0,0,-0,-0,0.02,,,,,,,,,,
5118,0,,,,-0.01,0.01,1.0,0,-0,-0,0.02,,,,,,,,,,
5123,0,2.58,2.55,,-0.01,0.01,1.0,0,-0,-0,0.02,0,0,0,,,,,,,
5128,0,,,,-0.01,0.01,1.0,0,-0,-0,0.02,,,,,,,,,,
5133,0,2.56,2.53,,-0.01,0.01,1.0,0,-0,-0,0.02,,,,,,,,,,
5138,0,,,,-0.01,0.01,1.0,0,-0,-0,0.02,,,,,,,,,,
5143,0,2.54,2.51,,-0.01,0.01,1.0,0,-0,-0,0.02,,,0,0.0,0.0,0.0,0.0,0,0,0.0
5148,0,,,,-0.01,0.01,1.0,0,-0,-0,0.02,,,,,,,,,,
5153,0,2.57,2.54,,-0.01,0.01,1.0,0,-0,-0,0.02,,,,,,,,,,
5158,0,,,,-0.01,0.01,1.0,0,-0,-0,0.02,,,,,,,,,,
5163,0,2.58,2.55,,-0.01,0.01,1.0,0,-0,-0,0.02,0,0,0,,,,,,,
5168,0,,,,-0.01,0.01,1.0,0,-0,-0,0.02,,,,,,,,,,
5173,0,2.58,2.54,,-0.01,0.01,1.0,0,-0,-0,0.02,,,,,,,,,,
5178,0,,,,-0.01,0.01,1.0,0,-0,-0,0.02,,,,,,,,,,
5183,0,2.54,2.51,,-0.01,0.01,1.0,0,-0,-0,0.02,,,0,,,,,,,
5188,0,,,,-0.01,0.01,1.0,0,-0,-0,0.02,,,,,,,,,,
5193,0,2.57,2.54,,-0.01,0.01,1.0,0,-0,-0,0.02,,,,,,,,,,
5198,0,,,,-0.01,0.01,1.0,0,-0,-0,0.02,,,,,,,,,,
5203,0,2.58,2.54,,-0.01,0.01,1.0,0,-0,-0,0.02,0,0,0,,,,,,,
5208,0,,,,-0.01,0.01,1.0,0,-0,-0,0.02,,,,,,,,,,
5213,0,2.55,2.51,,-0.01,0.01,1.0,0,-0,-0,0.02,,,,,,,,,,
5218,0,,,,-0.01,0.01,1.0,0,-0,-0,0.02,,,,,,,,,,
5223,0,2.58,2.54,,-0.01,0.01,1.0,0,-0,-0,0.02,,,0,,,,,,,
5228,0,,,,-0.01,0.01,1.0,0,-0,-0,0.02,,,,,,,,,,
5233,0,2.59,2.55,,-0.01,0.01,1.0,0,-0,-0,0.02,,,,,,,,,,
5238,0,,,,-0.01,0.01,1.0,0,-0,-0,0.02,,,,,,,,,,
5243,0,2.54,2.53,,-0.02,0.01,1.0,0,-0,-0,0.02,0,0,0,0.0,0.0,0.0,0.0,0,0,0.0
5248,0,,,,-0.02,0.01,1.0,0,-0,-0,0.02,,,,,,,,,,
5253,0,2.57,2.54,,-0.02,0.01,1.0,0,-0,-0,0.02,,,,,,,,,,
5258,0,,,,-0.02,0.01,1.0,0,-0,-0,0.02,,,,,,,,,,
5263,0,2.59,2.55,,-0.02,0.01,1.0,0,-0,-0,0.02,,,0,,,,,,,
5268,0,,,,-0.02,0.01,1.0,0,-0,-0,0.02,,,,,,,,,,
5273,0,2.54,2.51,,-0.02,0.01,1.0,0,-0,-0,0.02,,,,,,,,,,
5278,0,,,,-0.02,0.01,1.0,0,-0,-0,0.02,,,,,,,,,,
5283,0,2.56,2.53,,-0.02,0.01,1.0,0,-0,-0,0.02,0,0,0,,,,,,,
5288,0,,,,-0.02,0.01,1.0,0,-0,-0,0.02,,,,,,,,,,
5293,0,2.58,2.55,,-0.01,0.01,1.0,0,-0,-0,0.02,,,,,,,,,,
5298,0,,,,-0.02,0.01,1.0,0,-0,-0,0.02,,,,,,,,,,
5303,0,2.55,2.52,,-0.02,0.01,1.0,0,-0,-0,0.02,,,0,,,,,,,
5308,0,,,,-0.02,0.01,1.0,0,-0,-0,0.02,,,,,,,,,,
5313,0,2.58,2.54,,-0.02,0.01,1.0,0,-0,-0,0.02,,,,,,,,,,
5318,0,,,,-0.02,0.01,1.0,0,-0,-0,0.02,,,,,,,,,,
5323,0,2.58,2.55,,-0.02,0.01,1.0,0,-0,-0,0.02,0,0,0,,,,,,,
5328,0,,,,-0.02,0.01,1.0,0,-0,-0,0.02,,,,,,,,,,
5333,0,2.58,2.55,,-0.02,0.01,1.0,0,-0,-0,0.02,,,,,,,,,,
5338,0,,,,-0.02,0.01,1.0,0,-0,-0,0.02,,,,,,,,,,
5343,0,2.53,2.5,,-0.02,0.01,1.0,0,-0,-0,0.02,,,0,0.0,0.0,0.0,0.0,0,0,0.0
5348,0,,,,-0.02,0.01,1.0,0,-0,-0,0.02,,,,,,,,,,
5353,0,2.58,2.55,,-0.02,0.01,1.0,0,-0,-0,0.02,,,,,,,,,,
5358,0,,,,-0.02,0.01,1.0,0,-0,-0,0.02,,,,,,,,,,
5363,0,2.53,2.5,,-0.02,0.01,1.0,0,-0,-0,0.02,0,0,0,,,,,,,
5368,0,,,,-0.02,0.01,1.0,0,-0,-0,0.02,,,,,,,,,,
5373,0,2.58,2.55,,-0.02,0.01,1.0,0,-0,-0,0.02,,,,,,,,,,
5378,0,,,,-0.02,0.01,1.0,0,-0,-0,0.02,,,,,,,,,,
5383,0,2.57,2.52,,-0.02,0.01,1.0,0,-0,-0,0.02,,,0,,,,,,,
5388,0,,,,-0.02,0.01,1.0,0,-0,-0,0.02,,,,,,,,,,
5393,0,2.58,2.54,,-0.02,0.01,1.0,0,-0,-0,0.02,,,,,,,,,,
5398,0,,,,-0.02,0.01,1.0,0,-0,-0,0.02,,,,,,,,,,
5403,0,2.58,2.55,,-0.02,0.01,1.0,0,-0,-0,0.02,0,0,0,,,,,,,
5408,0,,,,-0.02,0.01,1.0,0,-0,-0,0.02,,,,,,,,,,
5413,0,2.54,2.5,,-0.02,0.01,1.0,0,-0,-0,0.02,,,,,,,,,,
5418,0,,,,-0.02,0.01,1.0,0,-0,-0,0.02,,,,,,,,,,
5423,0,2.58,2.55,,-0.02,0.01,1.0,0,-0,-0,0.02,,,0,,,,,,,
5428,0,,,,-0.02,0.01,1.0,0,-0,-0,0.02,,,,,,,,,,
5433,0,2.56,2.53,,-0.02,0.01,1.0,0,-0,-0,0.02,,,,,,,,,,
5438,0,,,,-0.02,0.01,1.0,0,-0,-0,0.02,,,,,,,,,,
5443,0,2.57,2.54,,-0.02,0.01,1.0,0,-0,-0,0.02,0,0,0,0.0,0.0,0.0,0.0,0,0,0.0
5448,0,,,,-0.02,0.01,1.0,0,-0,-0,0.02,,,,,,,,,,
5453,0,2.58,2.54,,-0.02,0.01,1.0,0,-0,-0,0.02,,,,,,,,,,
5458,0,,,,-0.02,0.01,1.0,0,-0,-0,0.02,,,,,,,,,,
5463,0,2.58,2.55,,-0.02,0.01,1.0,0,-0,-0,0.02,,,0,,,,,,,
5468,0,,,,-0.02,0.01,1.0,0,-0,-0,0.02,,,,,,,,,,
5473,0,2.54,2.5,,-0.02,0.01,1.0,0,-0,-0,0.02,,,,,,,,,,
5478,0,,,,-0.01,0.01,1.0,0,-0,-0,0.02,,,,,,,,,,
5483,0,2.58,2.55,,-0.01,0.01,1.0,0,-0,-0,0.02,0,0,0,,,,,,,
5488,0,,,,-0.01,0.01,1.0,0,-0,-0,0.02,,,,,,,,,,
5493,0,2.58,2.55,,-0.01,0.01,1.0,0,-0,-0,0.02,,,,,,,,,,
5498,0,,,,-0.01,0.01,1.0,0,-0,-0,0.02,,,,,,,,,,
5503,0,2.54,2.51,,-0.01,0.01,1.0,0,-0,-0,0.02,,,0,,,,,,,
5508,0,,,,-0.01,0.01,1.0,0,-0,-0,0.02,,,,,,,,,,
5513,0,2.55,2.51,,-0.01,0.01,1.0,0,-0,-0,0.02,,,,,,,,,,
5518,0,,,,-0.01,0.01,1.0,0,-0,-0,0.02,,,,,,,,,,
5523,0,2.57,2.54,,-0.02,0.01,1.0,0,-0,-0,0.02,0,0,0,,,,,,,
5528,0,,,,-0.01,0.01,1.0,0,-0,-0,0.02,,,,,,,,,,
5533,0,2.58,2.54,,-0.02,0.01,1.0,0,-0,-0,0.02,,,,,,,,,,
5538,0,,,,-0.01,0.01,1.0,0,-0,-0,0.02,,,,,,,,,,
5543,0,2.59,2.55,,-0.02,0.01,1.0,0,-0,-0,0.02,,,0,0.0,0.0,0.0,0.0,0,0,0.0
5548,0,,,,-0.02,0.01,1.0,0,-0,-0,0.02,,,,,,,,,,
5553,0,2.56,2.53,,-0.02,0.01,1.0,0,-0,-0,0.02,,,,,,,,,,
5558,0,,,,-0.02,0.01,1.0,0,-0,-0,0.02,,,,,,,,,,
5563,0,2.57,2.54,,-0.02,0.01,1.0,0,-0,-0,0.02,0,0,0,,,,,,,
5568,0,,,,-0.02,0.01,1.0,0,-0,-0,0.02,,,,,,,,,,
5573,0,2.59,2.55,,-0.02,0.01,1.0,0,-0,-0,0.02,,,,,,,,,,
5578,0,,,,-0.02,0.01,1.0,0,-0,-0,0.02,,,,,,,,,,
5583,0,2.58,2.54,,-0.02,0.01,1.0,0,-0,-0,0.02,,,0,,,,,,,
5588,0,,,,-0.02,0.01,1.0,0,-0,-0,0.02,,,,,,,,,,
5593,0,2.55,2.51,,-0.02,0.01,1.0,0,-0,-0,0.02,,,,,,,,,,
5598,0,,,,-0.02,0.01,1.0,0,-0,-0,0.02,,,,,,,,,,
5603,0,2.58,2.55,,-0.02,0.01,1.0,0,-0,-0,0.02,0,0,0,,,,,,,
5608,0,,,,-0.02,0.01,1.0,0,-0,-0,0.02,,,,,,,,,,
5613,0,2.58,2.55,,-0.02,0.01,1.0,0,-0,-0,0.02,,,,,,,,,,
5618,0,,,,-0.02,0.01,1.0,0,-0,-0,0.02,,,,,,,,,,
5623,0,2.58,2.55,,-0.02,0.01,1.0,0,-0,-0,0.02,,,0,,,,,,,
5628,0,,,,-0.02,0.01,1.0,0,-0,-0,0.02,,,,,,,,,,
5633,0,2.58,2.54,,-0.02,0.01,1.0,0,-0,-0,0.02,,,,,,,,,,
5638,0,,,,-0.02,0.01,1.0,0,-0,-0,0.02,,,,,,,,,,
5643,0,2.55,2.52,,-0.02,0.01,1.0,0,-0,-0,0.02,0,0,0,0.0,0.0,0.0,0.0,0,0,0.0
5648,0,,,,-0.02,0.01,1.0,0,-0,-0,0.02,,,,,,,,,,
5653,0,2.59,2.55,,-0.02,0.01,1.0,0,-0,-0,0.02,,,,,,,,,,
5658,0,,,,-0.02,0.01,1.0,0,-0,-0,0.02,,,,,,,,,,
5663,0,2.56,2.53,,-0.02,0.01,1.0,0,-0,-0,0.02,,,0,,,,,,,
5668,0,,,,-0.02,0.01,1.0,0,-0,-0,0.02,,,,,,,,,,
5673,0,2.58,2.55,,-0.02,0.01,1.0,0,-0,-0,0.02,,,,,,,,,,
5678,0,,,,-0.02,0.01,1.0,0,-0,-0,0.02,,,,,,,,,,
5683,0,2.55,2.52,,-0.02,0.01,1.0,0,-0,-0,0.02,0,0,0,,,,,,,
5688,0,,,,-0.02,0.01,1.0,0,-0,-0,0.02,,,,,,,,,,
5693,0,2.57,2.54,,-0.02,0.01,1.0,0,-0,-0,0.02,,,,,,,,,,
5698,0,,,,-0.02,0.01,1.0,0,-0,-0,0.02,,,,,,,,,,
5703,0,2.58,2.55,,-0.02,0.01,1.0,0,-0,-0,0.02,,,0,,,,,,,
5708,0,,,,-0.02,0.01,1.0,0,-0,-0,0.02,,,,,,,,,,
5713,0,2.57,2.52,,-0.02,0.01,1.0,0,-0,-0,0.02,,,,,,,,,,
5718,0,,,,-0.01,0.01,1.0,0,-0,-0,0.02,,,,,,,,,,
5723,0,2.54,2.51,,-0.01,0.01,1.0,0,-0,-0,0.02,0,0,0,,,,,,,
5728,0,,,,-0.01,0.01,1.0,0,-0,-0,0.02,,,,,,,,,,
5733,0,2.58,2.55,,-0.01,0.01,1.0,0,-0,-0,0.02,,,,,,,,,,
5738,0,,,,-0.02,0.01,1.0,0,-0,-0,0.02,,,,,,,,,,
5743,0,2.58,2.55,,-0.02,0.01,1.0,0,-0,-0,0.02,,,0,0.0,0.0,0.0,0.0,0,0,0.0
5748,0,,,,-0.02,0.01,1.0,0,-0,-0,0.02,,,,,,,,,,
5753,0,2.54,2.51,,-0.02,0.01,1.0,0,-0,-0,0.02,,,,,,,,,,
